 BUS_STOP_ID ,BUS_STOP_NAME,BUS_STOP_CODE,LATITUDE_CURRENT,LONGITUDE_CURRENT
0,Trip Start or Trip Close or Trip Cancel or Special Tickets,,12.9716,77.5946
3,Kodihalli,KDLIii,12.96004656,77.64719738
5,MC Layout,MCL1,12.97500273,77.54211521
6,MG Road Metro Station,MGRMS,12.97582743,77.60564176
7,Central Silk Board (Towards Madivala),CNLSK,12.91704891,77.62171975
8,Banashankari Bus Station (Towards Konanakunte Cross),BSK1,12.91672959,77.57366674
9,Banashankari TTMC,BSKTTMC1,12.91753106,77.57296011
10,Sangam Circle,SMG,12.91703282,77.57840196
12,5th Block Jayanagara (Towards Jayanagara),JNGR5,12.91730831,77.58357173
17,Ragigudda Temple,RGD,12.91693403,77.5932443
18,East End Jayanagara (Towards BTM Layout),END,12.91684059,77.59719395
20,MICO Layout,MCLYT,12.91659989,77.60312779
21,BTM Layout Water Tank,WATANK,12.91669366,77.60684366
22,BTM Layout Water Tank,WTANK,12.91649963,77.60642451
23,Udupi Garden Petrol Bunk,bmtl1,12.91717183,77.61007499
25,16th Main BTM Layout ,BTM16th,12.91652707,77.60880393
26,7th Main BTM Layout,BTM7,12.91206163,77.60632518
27,BTM Layout Kuvempu Nagara ,BTMLYK,12.91629583,77.61592327
28,BTM Layout Kuvempu Nagara ,BMTLYTK,12.91635662,77.61591532
29,Central Silk Board UFLY,CSBFY,12.91630999,77.62354268
30,Vijayanagara,VJN1,12.97183024,77.53791923
31,Sirsi Circle,SRSC2,12.96217397,77.56000394
32,KR Market,KR MKT,12.96366889,77.57736881
35,Bommanahalli (Towards Beguru),BMH0,12.90677751,77.62842911
36,Bommanahalli (Towards Electronic City),BMH2,12.90536003,77.63013142
37,Garvebhavipalya,GPALYA,12.89618963,77.63544064
38,Kudlu Gate,KGATE,12.88965654,77.63948598
39,Kudlu Gate,KDG,12.88985737,77.63965926
40,Singasandra,SSNDRA,12.87874432,77.64647488
41,Hosa Road (Towards Electronic City),HOSRD,12.87059695,77.65295173
42,Electronic City (Towards Attibele),ELC3,12.84816925,77.6707112
43,Konappana Agarhara,KNA,12.85485537,77.66515418
44,PESIT College,PESIT,12.85873107,77.66232768
45,Singasandra,SNSDRA,12.87738903,77.64705927
46,Garvebhavipalya,GBPLYA,12.89629994,77.63568778
47,Bommanahalli (Towards St Johns),BMH4,12.90483622,77.63007965
48,Rupena Agrahara,ROPAG,12.91168823,77.62586568
49,Central Silk Board (Towards Kuvempunagara),CSB2,12.91611715,77.62309375
50,Madivala,MDWL1,12.92008333,77.62066167
51,Ayyappaswamy Temple Madivala,AT1,12.92472759,77.61791906
52,Jn of Hosur Road,JNHR,12.93201852,77.61325248
53,Muneshwara Devasthana,MSD,12.93636174,77.60660537
54,Nimhans Hospital,NMH1,12.93868165,77.59831884
55,Lakkasandra,LKS1,12.94382951,77.59709837
56,12th Cross Wilson Garden ,WLG10C,12.9467426,77.59607302
57,Wilson Garden Police Station,WGPS,12.95021269,77.5963872
58,Shanthinagara Bus Stop KH Road ,SHNG,12.95497093,77.591889
60,Depot-07 Subhashnagara,D-7,12.9796856,77.57190406
61,KR Circle,KRC,12.97472667,77.58691
62,Corporation (Towards KR Market),Corpo,12.96724194,77.58828195
63,7th Cross Wilson Garden ,WLG7,12.94709538,77.59451345
64,Shanthinagara TTMC,SNTTMC3,12.95459258,77.5925092
65,Wilson Garden Police Station,WGPC,12.95140577,77.59521987
66,10th Cross Wilson Garden ,WG10C,12.94715044,77.59805714
67,Lakkasandra,LKS,12.94308106,77.59743743
68,Muneshwara Devasthana,MHW,12.93643438,77.60661905
69,Jn of Hosur Road,JNHR1,12.9321567,77.61327778
70,St Johns Hospital,STJH,12.929492,77.61592831
71,Water Tank Koramangala,KRMW1,12.92736827,77.62164689
72,Kudure Mukha Colony,KMHC,12.92561867,77.62579801
73,Krupanidhi College,KRPNC,12.9239713,77.62856574
74,Madivala,MDWMK,12.92160726,77.6214077
75,Roopena Agrahara,RPNA,12.91186255,77.62604769
76,Bengaluru Dairy Circle (Towards Bannerughatta),BDC,12.93563843,77.60147069
77,Ananda Ashrama,ASRM1,12.92725733,77.6006887
78,Coles Road,BGT1,12.92522667,77.60055896
80,MICO Layout Checkpost Gopalan mall ,MICLYT,12.91394928,77.60005281
81,JP Nagara 3rd Phase,JPN 3rd 2,12.9081699,77.60041709
83,Bilekahalli,BLKLLI,12.90077134,77.60110669
84,IIM Apollo ,IIBM1,12.8960723,77.59976967
85,HSBC (Towards Arakere Gate),,12.89226171,77.59883917
86,Arakere Gate (Towards BPL),ARKRG,12.89059818,77.59822328
87,BPL (Towards Hulimavu),BPLS,12.88738986,77.59702001
88,Hulimavu Gate (Towards Meenakshi Temple),HMGT,12.88075471,77.59590891
89,Meenakshi Temple,MNKTM,12.87470152,77.59482719
90,Loyola School,LYLASC,12.87099571,77.5935365
91,Kalena Agrahara,KLNA,12.86613423,77.59190793
92,Himagiri,HIMGR,12.86238129,77.59061983
93,Gottigere (Towards Basavanapura Gate),GTR2,12.85668319,77.58893224
94,T John College,TJCLG,12.85046022,77.58837133
95,Basavanapura Gate,BSPRG,12.84623151,77.58826256
96,Jn of Malenallasandra ,JNOFMLSNS,12.83550026,77.59008647
97,Kalkere,KLR5,12.83243745,77.58896162
98,Ryan International School,RIYNISC,12.81925921,77.5847055
99,Bannerughatta Circle (Towards Kalkere),BNRCL,12.8135379,77.58109141
100,Ryan International School,RISC,12.81937256,77.58467229
101,AMC College,AMC2,12.82948817,77.58772479
102,Kalkere,KALR,12.83227727,77.58878031
103,Jn of Malenallasandra,JNOFMLS,12.83555793,77.58998635
104,Koli Farm Gate,KLFG,12.84100722,77.58856176
105,Basavanapura Gate,BSNG,12.84620008,77.58817751
106,T John College,STJCG,12.84959604,77.58821708
107,Gottigere (Towards Kalena Agrahara),GTR1,12.85620471,77.58875119
108,Himagiri,HMGR,12.86248422,77.59055583
109,Loyola School,LYLSC,12.87085012,77.59337516
110,Meenakshi Temple,MINKSTEM,12.87470064,77.59466015
111,Hulimavu Gate (Towards Jayadeva Hospital),HMG,12.88135098,77.59588443
112,BPL (Towards Arakere),BPL1,12.88726392,77.59686118
113,Arakere Gate (Towards IIBM),ARKR,12.89062758,77.59802821
114,HSBC (Towards IIBM),HSBC,12.8927024,77.5987824
115,IIM Apollo ,IIBM,12.89591686,77.59954375
116,Bilekahalli,BLKLI,12.90016624,77.60079178
117,JP Nagara 3rd Phase,JPN 3rd,12.90771344,77.60031173
118,NS Palya,NSPL-1,12.90869812,77.6034758
120,Gurappanapalya,GRPLY,12.91938495,77.59999955
122,Ananda Ashrama,ASRM,12.92668624,77.60038036
123,Bengaluru Dairy Circle (Towards Jayadeva Hospital),BDCS,12.93561395,77.60122359
124,Maharanis College,MHC,12.97705906,77.58594229
125,Maharanis College ,MRC3,12.97879977,77.58490003
126,St Marthas Hospital,STMH,12.96962529,77.58719475
127,Corporation (Towards HAL MG Road),CRP,12.96828565,77.58939829
128,Town Hall,TWNHG,12.96381149,77.58434159
130,Museum,MESEUM,12.97404146,77.59599068
131,MG Road Metro Station,MGR-2,12.97538948,77.60644427
132,Commando Hospital,CMH,12.96370285,77.6264945
133,Kundalahalli Gate,KDLGTE,12.95592607,77.71566912
134,Kundalahalli Gate,KDGATE,12.95585442,77.71376455
135,Thubarahalli,TBRLI12,12.95573591,77.72035565
136,Siddapura,SDAPRA,12.95630253,77.73165313
137,Ramagondanahalli,RMGDLI,12.95708526,77.74017069
138,Brooke Bond,BRKBND,12.96396766,77.74832851
139,White Field Post Office,WFPO1,12.97055338,77.74992933
140,White Field Post Office,WFPO2,12.96926404,77.74996365
141,Varthur Kodi,VRTKD2,12.95696911,77.74539676
142,Ramagondanahalli,RMGDLI1,12.95689538,77.73969932
143,Siddapura,SDPRA,12.95606013,77.73072328
144,Thubarahalli,TBRHL3,12.95586495,77.72048931
145,Kundalahalli,KDLIG,12.95818341,77.71569881
146,Marathahalli Bridge,MTHB,12.95693481,77.70070592
147,Yamalur Cross,YMLRCS,12.95523694,77.68817378
148,Yamalur Cross,YMLR1,12.95508381,77.68799211
149,HAL Kalyana Mantap ,HALPS1,12.95458612,77.68221743
150,HAL Main Gate (Towards Murugeshpalya),HALMG-1,12.95840103,77.66565285
152,Murugeshpalya,NGPLYA,12.95920774,77.65622463
153,Kodihalli,KDHL1,12.9599491,77.64677806
154,NAL Manipal Hospital ,MPH-1,12.95971832,77.64938601
155,Domlur (Towards HAL),DMLUR,12.9611437,77.63808964
156,Domlur (Towards Commando Hospital),DOMLR,12.96126036,77.63614696
157,St Joseph Boys High School Malya Hospital ,MLYHPT,12.97037888,77.59430906
158,Corporation (Towards Subbiah Circle),CRP12,12.96483149,77.58802933
159,Subbaiah Circle,SBCC,12.962654,77.59096469
160,Kempegowda Bus Station,KBS1,12.97751447,77.57178022
161,SI Apartment HSR Layout,HSRA2,12.9167867,77.62934068
162,14th Main HSR Layout (Towards Agara),14THM,12.91634608,77.63508199
163,Depot-25 Gate (Towards Hebbala),D-25,12.9199016,77.64300216
165,KR Hospital Uttarahalli,KRHU,12.90692687,77.54610097
166,Chikkallasandra Aralimara (Towards Uttarahalli),CKLSC,12.9115049,77.55201441
167,Gowdanapalya,GDPLy,12.91152991,77.55598373
168,Prarthana School,PRSG,12.91183438,77.5584708
169,Padmanabha Nagara,PDNGRA,12.91825997,77.55966843
170,Okalipura,OKPRA,12.98217179,77.56769615
171,KIMS College,KIMS,12.92636677,77.56101493
172,5th Cross Magadi Road,MAGDY,12.97571968,77.5603386
173,Indira Nursing Home,INDNH,12.92922748,77.56441636
174,Gopalapura (Towards Magadi Road Tollgate),GPPRA,12.98067507,77.55837238
175,Tyagaraja Nagara Banashankari 2nd Stage ,TGRJ,12.93220096,77.56774533
176,KEB Quarters,KEBQT,12.93506496,77.56846829
177,NR Colony,NRCN,12.93787607,77.56901154
178,Netkallappa Circle,NKPC,12.93928652,77.57192883
179,Minerva Mill,MNML,12.97952896,77.5644609
180,Basavanagudi Police Station,BNGDY,12.94129382,77.57364841
181,Gandhi Bazaar,GBZR,12.94577155,77.5706474
182,Ramakrishna Ashrama,RAMKA,12.94900994,77.567645
185,Vijayanagara,VJN,12.97314296,77.53810566
186,Maruthi Mandira,MRMDRA,12.96770448,77.53632711
187,Chamarajapet (Towards Kempegowda Bus Station),CHRPE,12.95768369,77.56733098
188,Vinayaka Talkies,VNYKT78,12.96380068,77.56833112
189,KPCC Office,JDSO,12.98296333,77.57644167
190,Maruthi Mandira,MMNDRA,12.9677291,77.53617308
191,Vijayanagara,VJNGRAA,12.97185438,77.53764583
192,Shivananda Store,SVNDS1,12.98756619,77.58040438
193,Corporation (Towards Cauvery Bhavan),CRPN,12.96841334,77.5866793
194,Manuvana,MNVNA,12.97426683,77.54457001
195,Mysore Bank,MYBNK,12.97267471,77.58176117
196,RM Guttahalli,RMGTH,12.99975983,77.58390548
197,Prasanna Theatre,PRSNNT,12.97430901,77.55163576
198,10th Cross Magadi Road,MGDR10C,12.97578029,77.55691837
199,Mekhri Circle,MKC,13.01699119,77.5838126
200,Gopalapura (Towards Sujatha Theatre),GPL,12.98069606,77.55784869
201,CBI (Towards Hebbala),CBI,13.02604395,77.58510763
202,Sujatha Talkies,SJTR,12.98264395,77.56233968
203,Depot-14 RT Nagara,D14,13.02910478,77.59292564
204,Military Dairy Farm ,ESTML1,13.05024582,77.59316134
205,Okalipura,OKLPR,12.9826941,77.5685801
206,Kempegowda Bus Station (Amara Hotel),KBS,12.97798854,77.57381632
207,Byatarayanapura (Towards Yalahanka),BRP,13.06550968,77.59298681
208,GKVK Gate (Towards Yalahanka),GKVK,13.07288441,77.59248137
209,Depot-28 Hebbala,D28HBL,13.04367943,77.59400728
211,Jakkur Aerodrum,JKRAD1,13.07623121,77.59294404
212,GKVK Gate (Towards Hebbala),GKVK1,13.07270203,77.59290979
213,Military Dairy Farm,MDF,13.04964238,77.59263379
214,Hebbala (Towards RM Guttahalli),HBL1,13.03890176,77.58952077
215,Canara Bank Hebbala,CNRBK2,13.03576564,77.58903263
216,Veterinary Hospital,VTRNC,13.03026395,77.58693428
217,CBI (Towards Mekhri Circle),CBI2,13.02581166,77.58529995
218,Mekhri Circle,MKC1,13.01944763,77.58395839
219,Palace Ground,PLCGR1,13.01040167,77.58400667
220,Shivananda Store,SVNDS,12.98790722,77.58055865
221,Shivananda Store,SVNDS2,12.98666279,77.57933728
222,Ananda Rao Circle,arc1,12.9811145,77.57468557
223,Swastik Sheshadripuram College ,SWSTK1,12.98781654,77.57456486
224,Central,CNTRL,12.99000666,77.57205761
225,Central,CNTRL4,12.98984293,77.57177676
226,11th Cross Malleshwaram ,MLLSRM,13.00292613,77.57126014
227,15th Cross Malleshwaram (Towards Yashawanthapura),MLM15,13.00512833,77.571185
228,18th Cross Malleshwaram (Towards Bashyam Circle),STL,13.00898032,77.57143549
232,Devasandra Chikkamaranahalli,DVSNDRA,13.03632413,77.56668335
233,Kuvempu Circle,KVPC1,13.04323725,77.56125941
235,BEL Hospital,belc1,13.04946256,77.55739556
236,Nagaland Circle,BLGC1,13.05596926,77.55748139
237,Dodda Bommasandra Arch,DODBMA,13.05870064,77.55913193
238,Dodda Bommasandra,DDBMSDRA,13.06014033,77.55886558
239,Chamundeshwari Layout,CMDSLY,13.06480333,77.55955667
240,1st Block Vidyaranyapura,VDYA1B,13.07009147,77.55539641
241,Lakshmi Venkateshwara Temple,LVNKTL,13.07428068,77.55728859
242,Post Office Vidyaranyapura ,VPRAPOST,13.07644838,77.55823393
243,Echalamara Vidyaranyapura,ECHLM,13.07982,77.559195
244,Durga Parameshwari Temple,DRPRY,13.08176,77.55969
245,Vidyaranyapura,VPRA,13.0838614,77.56022713
246,Durga Parameshwari Temple,DGAPTL,13.08167356,77.55974808
247,Echalamara Vidyaranyapura,ECLMA,13.07980117,77.55929432
248,Post Office Vidyaranyapura,VDYAPO,13.0763732,77.55825018
249,Lakshmi Venkateshwara Temple,LSVNT,13.07427689,77.55735836
250,1st Block Vidyaranyapura,VDYAR1STB,13.07034954,77.55539859
251,Chamundeshwari Layout,CHMUDLY,13.06468976,77.55958892
252,Dodda Bommasandra,DODBM,13.06012057,77.55875878
253,Dodda Bommasandra Arch,DDDBMARC,13.05867464,77.55922323
254,Nagaland Circle,BLGC2,13.05586167,77.55720955
255,BEL Hospital,BELC3,13.05041627,77.55761601
256,BEL Circle (Towards Baliga Circle),BE LC,13.045861,77.55652503
257,Gokula,GKL,13.04122662,77.55727222
259,MS Ramaiah College,MSRC,13.02883755,77.56153062
260,Diwanarapalya,DWNPY,13.02633291,77.56183919
261,Ayyappa Temple Yashawanthapura,AYPT1,13.02139756,77.56314794
262,TollGate Yeshwanthapura,YPRTG,13.01849827,77.56121464
263,8th Cross Malleshwaram (Sampige Road),MLM8,12.99927824,77.57132394
264,Link Road,LNKRD,12.99424589,77.57398298
265,Swastik Sheshadripuram College ,SWSTK,12.98826273,77.5742975
266,Swastik Sheshadripuram College ,SWK,12.98903719,77.57434579
267,Shivananda Store,SNS,12.98673662,77.57949258
268,KR Market,KRM4,12.96420069,77.57761288
269,Mysore Road Satellite Bus Station,MRSBS,12.95357441,77.54377783
270,BHEL (Towards Nayandahalli),BHEL1,12.94849957,77.53558993
271,Depot-16 Deepanajalinagara,D16,12.95080496,77.5366768
272,Nayandahalli,NDH,12.94276094,77.5258688
273,BWSSB Quarters Nayandahalli,NBWSSB,12.94013413,77.5241064
274,RR Gate,RRSWG1,12.93621569,77.51661422
275,Bengaluru University Gate (Towards Kengeri),BNGUNVSTG,12.9354621,77.5129498
276,Jayaram Das Factory,JRMDF,12.93012611,77.50572237
277,Jayaram Das Factory,JRMDF1,12.930219,77.50603404
278,RV College,RVC,12.9251334,77.49935449
279,Dubasipalya Cross,DBSIPY,12.92268174,77.49604914
280,Kengeri TTMC,KGR1,12.9139541,77.48628165
281,Ganesha Temple Kengeri (Towards Kengeri TTMC),KNGTM,12.91127473,77.48031246
283,Robin Theatre,RBNT,12.91601899,77.479869
284,Beedi Karmikara Colony,BKC2,12.9187514,77.47089965
285,Beedi Karmikara Colony Gate,BKC,12.92226994,77.47481293
286,Kengeri Club ,KGRC1,12.92343361,77.47292166
287,Kommaghatta,KMGT1,12.92999859,77.46509254
288,Ramasandra Cross,RMSC,12.93262448,77.46165654
289,Byrohalli Gate,BRHG,12.93437395,77.44831566
290,Krishnasagara,KRSGR,12.93605545,77.42879154
291,Gulaganjahalli Cross,GGHC1,12.94145136,77.42532041
292,Yalachaguppe,YCH0,12.95931167,77.42106571
293,Tavarekere,TVK,12.96582888,77.40010421
294,Ganesha Temple Tavarekere,TVKGT1,12.96708714,77.40327097
295,Lakkuppe,LKP2,12.97001455,77.40997276
296,Honaganahatti,HNGHT,12.97427768,77.42118328
297,Channenahalli (Towards Gollarahatti),CNHL1,12.97798,77.43061833
298,Seegehalli Gate,SGHG0,12.98414691,77.44395249
299,Kadabagere Cross,KDBGC,12.98910902,77.44956951
300,Machohalli Gate,MCHG,12.99088122,77.45436234
301,Forest Gate (Towards Gollarahatti),FRSTG,12.99179167,77.45925833
302,Chikka Gollarahatti,CKGLH,12.99150042,77.46560203
303,Kachohalli Gate,KCHG,12.99053845,77.46871576
304,Gollarahatti (Towards Sunkadakatte),GLH10,12.98862886,77.47281386
305,Anjananagara,AJN8,12.98618371,77.48814919
306,Herohalli Cross (Towards Sunkadakatte),HRHC2,12.9874032,77.49257498
307,Janapriya Apartment,JNPAP,12.98897848,77.49932013
308,Sunkadakatte,SKDKT1,12.98954088,77.5060987
309,Kottigepalya,KTP1,12.98774288,77.51389285
310,Summanahalli,SMH,12.98660136,77.5211953
311,Kamakshipalya,KMKP,12.98384868,77.52919176
312,KHB Colony,KHB1,12.98127633,77.53552997
313,Agrahara Dasarahalli,ADSH1,12.97852542,77.54296472
314,Magadi Road TollGate ,MGDTLG,12.97468137,77.54886863
315,Magadi Road TollGate ,MGDTG,12.97429539,77.54912714
316,10th Cross Magadi Road,MGD10C,12.97562056,77.55644764
317,1st Cross Magadi Road,MGD1 C,12.97587214,77.56328904
318,Binny Mill,BNYM,12.97034366,77.56618933
320,Sirsi Circle,SCRLE,12.96015353,77.55914091
321,Poornima Talkies,PORNMTL,12.96091978,77.58827714
322,9th Block Jayanagara (40th Cross),JYNGR9B,12.91968893,77.59247305
323,4th T Block Jayanagara,JNNT,12.92306884,77.59343565
324,Sanjay Gandhi Hospital,SJGHSPL,12.92699075,77.59297859
328,Depot-06 Gate,DEPO 6,12.9826245,77.63528692
329,Binnamangala (Towards Tin Factory),BNM,12.98365891,77.63925413
330,Isolation Hospital,ISH,12.98510315,77.64310761
331,NGEF,NGEF,12.98790644,77.64995977
332,Bayyappanahalli Metro Station,BYPMETRO,12.99013657,77.65467656
333,Benniganahalli,BGH-1,12.99422423,77.6631548
334,Tin Factory,tinf,12.99712871,77.66965958
335,Tin Factory,TNF-1,12.99697042,77.66929525
336,Railway Station KR Puram,KRPRLY,13.00021342,77.67596501
337,Benniganahalli Bridge,BNGB,12.9971374,77.66288018
339,Isolation Hospital,ISOLH,12.98494942,77.643297
340,Depot-06 Indiranagara,D06,12.98180602,77.63449215
341,MG Road,MGRD,12.97782978,77.60194445
342,Town Hall,TWNHL,12.96357668,77.58426144
343,Minerva Circle,MNRVC,12.95362569,77.57994411
344,Lalbagh West Gate,LALBW,12.94752823,77.58013838
345,MN Krishnarao Park,MNKRO,12.94391987,77.57679563
346,Vijaya College,VJCLG,12.94004874,77.58017077
347,Vijaya College,RVROD,12.94120422,77.58017721
349,Jayanagara 4th Block,JBS4th,12.92922374,77.58609834
350,Sanjay Gandhi Hospital,SJNDHOP,12.92710589,77.59296362
351,Nimhans Hospital,NMH,12.93978245,77.59789382
352,Lalbagh Main Gate,LGHM,12.95407694,77.58567716
353,KH Road,KHRD,12.95772479,77.5931178
357,Yelachenahalli,YLCH1,12.89760334,77.57147635
358,MS Ramaiah College,MSRC1,13.02842594,77.5617065
359,BDA Complex HSR Layout,HSRBDA,12.91270327,77.6380683
360,NIFT College,NTFCG,12.91213667,77.65196
362,Depot-25 Gate (Central Silk Board),D 25,12.91967254,77.64301614
363,Bengaluru Dairy Circle (Towards Madiwala),DRC,12.93711834,77.60196929
364,Lalbagh Main Gate,LBMGT,12.95248685,77.58339215
365,Siddapura,SDDPURA,12.94618955,77.58877655
366,Nanjappa Circle,NCBS,12.96078086,77.60083466
367,Nanjappa Circle,HKSM,12.96136399,77.59951044
368,Poornima Talkies,PRM,12.96113438,77.5877642
369,Veerasandra,VRSND,12.83996363,77.677011
370,Veerasandra,VERS,12.83992719,77.67685594
371,Hebbagodi,HBGDI,12.82754484,77.68215119
372,Bommasandra (Towards Electronic City),BMSA,12.81943759,77.68841431
373,BTL College,BTLC,12.81187469,77.69478036
374,Hennagara Gate,HENG,12.80603772,77.69920467
375,Chandapura (Towards Attibele),CPR,12.80254817,77.70453724
376,Chandapura (Towards Electronic City),CPR0,12.802234,77.70448188
377,Tirumagondanahalli,TRMGH,12.79398167,77.7219812
378,Neraluru Gate,NRLG,12.79230904,77.72832798
379,Guddahatti Gate,GDHTGT,12.78810967,77.7370657
380,Guestline Hotel,GSTL,12.78680108,77.74173993
381,Yadavanahalli,YDHL,12.78558651,77.75080534
382,Indlubele,INDBLE,12.7909941,77.77635836
383,Bidaraguppe Towards Sarjapura),BDPE,12.80576063,77.78349795
384,BHEL Navaratna Layout,BNRTLY,12.81587333,77.78529
385,Exide Gate,EXGT1,12.8351599,77.78544687
386,Billapura,BLPR1,12.83740366,77.78506491
388,Crystal Apartment Sarjapura Road ,KRSTS,12.86772933,77.76711042
389,Chambenahalli,CHMB2,12.87930931,77.76156589
390,Thigalara Chowdenahalli Cross,CWDHLI,12.88169167,77.75699333
391,Dommasandra,DOMS,12.8793331,77.75417927
392,Gunjuru (Towards Sarjapura),GNGR,12.92137,77.73641167
393,Vinayaka Nagara,VNKGR,12.92871,77.73950667
394,Varthuru Govt College,VRTGTC,12.9424705,77.74709889
395,Varthur kodi,VRTKD1,12.95760637,77.74573931
397,Sai Baba General Hospital,SIBH,12.97383197,77.75027443
400,BPL (Towards ITPL),BPLIT,12.98535216,77.74768614
401,GR Tech Park ITPL,GRTP,12.98661014,77.74394584
402,ITPL,ITPL,12.9875598,77.73696825
403,Pattandur Agrahara Gate,PTAGC,12.98794716,77.73380882
404,Big Bazzar  ITPL,BIZR,12.98814515,77.73144021
405,Rajapalya,RJPLY,12.99129818,77.72117091
406,Hoodi (Towards Hope Farm),HODC2,12.99228224,77.71630953
407,Hoodi (Towards ITPL),HODC,12.99189379,77.71519958
408,Singaianapalya Phoenix,SIGPYP,12.99560151,77.69474547
409,Depot-18 White Field ,WFD-18,12.97729537,77.72623021
410,Depot-24 ITI Layout,ITID-24,13.00194829,77.6840979
411,Railway Station KR Puram,KR RLY,13.00003426,77.676516
412,Tin Factory,TIF,12.99646295,77.66866723
413,Kasthuri Nagara Ring Road,KASTN,13.00398938,77.66317961
414,B Channasandra Bridge,RMNRR,13.01331169,77.66178917
415,Babusabpalya (Towards Hebbala),BPSPY,13.02233464,77.64745137
417,Jn of Nagawara,NAGJN,13.04032301,77.6240061
418,Lumbini garden,LBNG,13.04323288,77.60934912
419,Kempapura,KMPU,13.0437473,77.60050173
420,18th Cross Malleshwaram (Towards YTTMC),MLSW18C,13.00889883,77.57105172
421,18th Cross Malleshwaram (Towards Malleshwaram Circle),MLM18C,13.01000486,77.56255973
422,RMC Yard (Yashawanthapura New Railway Station),RMCY,13.02361443,77.54869789
423,CMTI (Towards Yashwanthapura TTMC),CMTI,13.03133898,77.53577499
424,Goraguntepaly Metro Station,GGPLM1,13.02874689,77.54046209
425,Peenya Metro Station,PNY1st,13.0361155,77.52566048
427,8th Mile (Towards Nelamangala),8thML1,13.04507333,77.50757532
428,Marison Factory,MF,13.05015426,77.49248739
429,Chikkabidarakallu,CKBD,13.05189077,77.48776568
430,Anchepalya (Towards Nelamangala),ANC,13.05506122,77.47887503
431,TCI,TCI1,13.05898761,77.46471624
432,Ravuthanahalli Cross,RTHC,13.07336614,77.43898206
433,Dasanapura (Towards Nelamangala),DSN,13.07516758,77.43594626
434,Devannanapalya,DVN,13.07719806,77.43158513
435,Arishinakunte (Towards Nelamangala),ARSK,13.0797522,77.42398115
436,Vishwa Shanti Ashrama,VSA,13.08406595,77.41710731
437,Weavers Colony Nelamangala,WCN,13.09400697,77.40561959
438,TB Nelamangala,TBN,13.09706072,77.40145556
439,Anjaneya Temple Nelamangala,ANT,13.09733054,77.39782978
440,Nelamangala Bus Station,NMG0,13.09780909,77.39428055
442,Anjaneya Temple Nelamangala ,NMLAT,13.09739405,77.39777114
443,TB Nelamangala,NMLTB,13.09720432,77.40131604
444,Munireddy Palya J C Nagara ,MRP1,13.00691877,77.59278171
445,Weavers Colony Nelamangala,WCNML,13.09421891,77.40551643
447,Binnamangala (Towards Jalahalli Cross),BML2,13.08748088,77.41246651
449,Vishwa Shanti Ashrama,VSA1,13.08408803,77.41725696
450,Devannanapalya,DVNPL,13.07768653,77.431431
451,Dasanapura (Towards Jalahalli Cross),DSNP,13.07539361,77.4363575
452,Ravuthanahalli Cross,RVTHC,13.07337689,77.43891479
454,Madavara,MDVR,13.05667796,77.47472317
455,Anchepalya (Towards Jalahalli Cross),ANCP,13.05526591,77.4798162
456,CSI Hospital,CSIH1,12.98992431,77.59933748
457,Jalahalli Cross,JHC3,13.04004425,77.518585
459,SRS Peenya,SRS1,13.03471706,77.5299655
460,MEI Factory,MEIF,13.02654709,77.54434885
462,Goraguntepalya (Towards BEL Circle),GGPLY,13.02947712,77.54009753
463,Govardhan Talkies (Towards Malleshwaram),GVRDN1,13.01849841,77.55342591
464,Lido Talkies,LIDO,12.97278661,77.62064923
465,Halasuru,HLS-1,12.97845448,77.62908244
466,Double Road Indiranagara ,ING2ST,12.97824403,77.63695975
468,CMH Hospital (Towards Indira Nagara Police Station),CMHTL,12.97787804,77.64662799
469,Thippasandra,TPS2,12.973752,77.64708931
470,Thippasandra,TPS1,12.97417566,77.64683428
471,CMH Hospital (Towards CV Raman Nagara),CMHP,12.97783263,77.64682695
472,CMH Hospital (Towards Halasuru),CMHHPTL,12.97837323,77.64610277
473,Police Station Indiranagara,KFCPS3,12.97828671,77.6404186
474,Double Road Indiranagara ,IND2ST,12.97816516,77.63591788
475,Lakshmipura,LKMP,12.9782321,77.6321222
476,Halasuru,HLS,12.9777342,77.62809777
477,Lido Talkies,LIDO.,12.97270831,77.62142768
478,Manipal Centre MG Road,MNIPLC,12.97566035,77.61315062
479,Chinnaswamy Stadium,MGRD1,12.9778293,77.59867555
480,Shivajinagara Bus Station,SBS0,12.98378941,77.6031589
481,Indian Express,INDEX,12.98411256,77.59735287
482,RC College,RCC1,12.98412072,77.58671525
485,Malleshwaram Bus Stand,MBS,13.0087446,77.56893767
486,TV Tower,TVT,13.00962722,77.59052356
487,Palace Ground,PLCGR,13.01026957,77.58373196
488,CPRI,CPRI2,13.01467725,77.57497374
489,Bhadrappa Layout (Towards Hebbala),BDPL1,13.04747631,77.57578825
490,ITI Layout,ITIL1,13.03392414,77.56866467
491,Govardhan Talkies (Towards Jalahalli Cross),GVRDNT,13.01999619,77.55268998
492,RMC Yard (Yashawanthapura New Railway Station),RMCY1,13.02465304,77.54778846
493,MEI Factory,MEI2,13.0263547,77.54402881
494,Goraguntepalya (Towards Jalahalli Cross),GGPL,13.02882463,77.53963211
495,CMTI (Towards Jalahalli Cross),CMT,13.03064786,77.53631696
496,SRS Peenya,SRS,13.03422307,77.53038297
497,Mekhri Circle,MKRICRLCE,13.01450799,77.58262879
498,Ayyappa Temple Jalahalli Cross,AYPT,13.04661941,77.52259909
499,CS-Tata Institute,TATIN,13.01123871,77.56977007
500,Yeshwanthapura Circle,YWSC,13.01774654,77.5592109
501,Yashawanthapura TTMC,YTTMC1,13.01784025,77.55654693
502,TVS Cross Peenya,TVSC6,13.02839423,77.51947193
503,Iskcon Temple,ISKcON,13.01175164,77.55180104
504,Rolling Mill,RLGML,13.02644614,77.5146827
505,MES Road,mELC21,13.04388333,77.55436167
506,Mahalakshmi Layout Entrance,MGLY,13.00738919,77.54882006
507,NTTF Peenya,NTFPYA,13.02475305,77.51099375
508,Jalahalli Bakery,BKYJ,13.0425206,77.5498519
509,1st Block Rajajinagara,RJN1B,13.00426923,77.54923078
510,Brundavana Peenya,BRNPNYA,13.02040834,77.50815434
511,Jalahalli Village Gate ,JHVIG,13.04172833,77.54743833
512,14th Cross Peenya (Towards Peenya),P14C,13.01636157,77.50583551
513,Navarang Theatre,NVRNGT,12.99745955,77.54892223
514,Rajagopala Nagara,RJNP,13.01375453,77.50883757
515,Kurubarahalli,KRBRHLL,13.00096838,77.53628632
516,Peenya 2nd stage,PSS1,13.01080561,77.50684531
517,Water Tank Kamalanagara,WTRTANK,12.99534732,77.53985602
518,14th Cross Peenya (Towards NTTF),PEENYA14,13.01677035,77.5056847
519,8th Main Kamalanagara (Towards Basaveshwaranagara),BSVSR8M,12.99178709,77.53851032
520,Havanur Circle (Towards Unani Hospital),PVTRAP,12.98768629,77.53753865
521,Reliance Petrol Bunk Goraguntepalya,RLIPBG,13.02848485,77.53620576
522,KHB Colony,KHB,12.98108651,77.5355798
523,Modern Food Goraguntepalya,GRMDL,13.02486191,77.53406412
524,Kanteerava Studio,KTRVS,13.02158224,77.53528354
526,Havanur Circle (Towards Basaveshwara Nagara New Bus Station),PVTRPRD,12.98797937,77.53709964
527,Havanur Circle (Towards KHB Colony),HVNRCR1,12.98893672,77.53772375
528,8th Main Kamalanagara (Towards Shankarmutt),BSVRNGR8,12.99253582,77.53872112
529,Kanteerava Studio,KTAS1,13.02180225,77.5319544
530,Water Tank Kamalanagara,KWTRTNK,12.99579361,77.53995217
531,Shankar Mutt,SHKRM,12.99911538,77.54162477
532,Modi Hospital,MODIH,12.99737358,77.54591071
533,Lakshmidevi Nagara,LXMIDE,13.01548324,77.52602368
534,Navarang Theatre,NVRG,12.99941968,77.54980786
535,1st Block Rajajinagara,RAJ1B,13.00447566,77.54894388
537,Swatantra Yodha Nagara,STYNG1,13.006605,77.52700167
538,Tata Institute,TTI1,13.01510243,77.563861
539,Kamalanagara,KMLNGR,12.99266,77.530685
540,Mekhri Circle,MKC2,13.01455024,77.58480081
541,Kamakshipalya,KMKPL,12.98372117,77.52911263
542,Summanahalli,SMH4,12.98734846,77.51915284
543,CPRI,CPRI4,13.01479223,77.57487228
544,Kottigepalya,KTP,12.9877622,77.51520384
545,Vokkaliga School Kottigepalya,VKS2,12.9858938,77.51161817
547,Deepa Complex,DPC2,12.96644869,77.50511787
548,Ambedkar Institute of Technology,AIT,12.96309009,77.50517875
549,Kengunte Circle,AITKGT,12.96041662,77.50493649
550,Mallathahalli Cross,MRTALY,12.95744184,77.50325133
551,Bengaluru University Administrative Block,BUAMB1,12.94999731,77.50087248
552,Mariyappanapalya,MARPLA,12.94522521,77.49552935
553,Kenchanapura Cross,KENCCROSS,12.94150431,77.49358887
554,Nagadevanahalli,NGDH0,12.93585372,77.49242237
555,Shirke KHB Quarters,SHRK,12.93164534,77.4877241
556,Kengeri Church,KNGRI,12.92825849,77.48660911
557,Satellite Town Kengeri,KENGRCRL,12.92378203,77.4849784
558,Society Kengeri Satellite Town  ,KNGTWN,12.92163211,77.48418523
559,Railway Station Kengeri,KNGRIRAIL,12.91683163,77.48243264
560,Jn of Kommaghatta,JOKTA,12.9143735,77.48148508
562,Police Station Kengeri,KGR,12.91043803,77.48209996
563,Mylasandra Cross,MLSND,12.9176031,77.49047137
564,Dubasipalya Cross,DBIPLZA,12.92288098,77.49601394
565,RV College,RVCL,12.92535239,77.49922356
567,Bengaluru University Gate (Towards Nayandahalli),BNSG1,12.93572605,77.5134225
568,RR Gate,RRJWG,12.93645079,77.5184103
569,Nayandahalli,NDH1,12.9428988,77.52575553
570,Railway Gate Nayandahalli,NYDHRR,12.94593111,77.52638885
571,Jn of Nayandahalli,NDHLLI,12.9450264,77.52858343
572,Veerabhadra Nagara,VBNR1,12.93807058,77.53372138
573,PES College ,PESC2,12.93523006,77.53666087
575,Hoskerehalli Junction,HSKC2,12.93045766,77.54370859
576,Janatha Bazaar  Banashankari ,JBZ1,12.92839945,77.54588279
577,Kathriguppe,KTPR,12.92503965,77.55039624
578,Devegowda Petrol Bunk (Towards Kadirenahalli Cross),DVGDA,12.92191968,77.56051329
579,Kadirenahalli Cross,KDRHC,12.91391963,77.56660329
580,Yarab Nagara,YRBN,12.915725,77.56937167
581,Kaveri Nagara,KVNGR,12.91973173,77.56935555
582,Monotype Corporation,MONTPE,12.92181277,77.57052222
583,Banashankari Bus Station,BNS0,12.91767509,77.57401765
584,Maharanis College ,MRC,12.97887554,77.58477431
586,Vidhana Soudha Karnataka High Court ,VIDHAN,12.97933727,77.59216777
587,Indian Express,INDEXP1,12.9834746,77.59634127
588,Vasantha Nagara,VSNTN,12.99278817,77.59495232
590,HK Degree College,HKDGCG,12.99183405,77.60245694
591,Coles Park (Towards Doddy),COLPK,12.99554851,77.60656584
592,Frazer Town,DDY2,13.00095911,77.61294625
593,Clarence School (Towards Banasawadi),CLSSHL,13.00226912,77.6166513
594,KR Puram Market,KRPM-1,13.00842014,77.69501092
595,Jai Bharath Nagara ,JBHNG,13.00155801,77.62987783
596,Maruthi Sevanagara,MRTSVNG1,13.00271564,77.63470238
597,KR Puram Extension,KRPE,13.01164403,77.69858422
598,Subbayanapalya,AYPTPL,13.00726325,77.64036597
599,TC Palya  Gate,TAMPLYA,13.01736543,77.70477916
600,Bhattarahalli,BTH,13.02027184,77.7095704
601,SJES College,SJESC,13.0238599,77.71585556
602,Medahalli,MDH,13.02648177,77.7205736
603,Cipla Avalahalli ,CPL,13.03265537,77.73113382
604,Avalahalli (Towards Hoskote),AVH-1,13.03615133,77.73601632
605,Horamavu Signal (Towards Banasawadi),HMS1,13.01831248,77.6550878
606,Cheemasandra Gate,CMHG-1,13.03923159,77.73992234
607,Bandapura Gate,BDPG,13.04220684,77.74454132
608,RK Medical,RKMDL3,13.02331241,77.65831643
609,Horamavu ,HRMU,13.02652991,77.66096296
610,Sapthagiri Convention Hall,SCH,13.05088651,77.75661428
611,Horamavu,HRMU1,13.02645755,77.66082713
612,Katamanallur Gate,KTMG,13.05383934,77.76193267
613,RK Medical,RKMDL,13.02255263,77.65781391
615,Hoskote High School,HSKTHS,13.07026084,77.78401346
617,Hoskote Flower Market,HOSKTFLR,13.07529072,77.78633972
618,Hoskote Bus Stand,HSKSTP,13.07877548,77.78811693
619,Hoskote Bus Stand,HSKTBTP,13.07869949,77.78758834
621,Hoskote Flower Market,HSKTFLR,13.07509049,77.78640485
623,Maruthi School,MRTHSHOL,13.00969932,77.64437935
625,Hoskote High School,HSKTHSS,13.07034012,77.78347622
626,Hoskote Kodi,HSKK,13.05605429,77.76743884
627,ITC Factory,ITC FY,12.99861491,77.62196905
628,Katamanallur Gate,KTLRGT,13.05308024,77.76140698
629,Sapthagiri Convention Hall,SCH-,13.05030602,77.75662613
630,East Railway Station,ESTRL,13.00024247,77.61721795
631,Bandapura Gate,BDPG-1,13.04153526,77.74428367
632,Clarence School (Towards Masque Road),CLNSHL,13.00072514,77.61469434
633,Cheemasandra Gate,CMHG,13.03891867,77.74057609
634,Avalahalli (Towards Ramapura),AVHLY,13.03572917,77.73533814
635,Cipla Avalahalli ,CLP-1,13.03224368,77.73126138
636,Mosque Road,MQERD1,13.00034404,77.61599862
637,Medahalli,MDH-1,13.02592117,77.72038924
638,SJES College,SJESC-1,13.02326745,77.71546075
639,Coles Park (Towards Bomboo Bazar),CLSPRK,12.99467078,77.60804639
640,Bhattarahalli,BTH-1,13.01963137,77.70925083
641,TC Palya  Gate,TMBTY,13.01676974,77.70417849
642,KR Puram Extension,KRE,13.011327,77.69866714
643,HK Degree College,HKDGC,12.99177784,77.60245274
644,KR Puram Market,KRPM,13.00813739,77.69501132
645,GPO,GPO,12.98174883,77.594833
646,KR Puram Govt Hospital,KRPG,13.00783558,77.69255201
647,Maharanis College,KRC 1,12.97688305,77.58569761
648,JP Nagara 6th Phase,JPN 6th,12.90655206,77.57763641
649,ITI Colony Gate,ITICG,13.00565534,77.68458469
651,Ramamurthy Nagara Church,RMNCHR,13.01171853,77.67901191
652,Cauvery Bhavana,CVBV,12.97349267,77.58150066
653,Ramamurthy Nagara Police Station,RMPS1,13.01202942,77.66792901
654,High Ground Police Station,HGRPS,12.98907501,77.58865425
655,Ramamurthy Nagara Ring Road,RMTNRD,13.01113468,77.66231131
656,New Baldwin School,NBDNSH,13.01434396,77.65819904
657,Cantonment Railway Station,CRLST,12.99384083,77.59731729
658,Banasawadi (Towards Shivajinagara),BNSWD,13.01425859,77.65095461
659,Bamboo Bazaar,BMBZ,12.99219243,77.60414818
660,Steel Factory Banaswadi,STLFYBS,13.01306819,77.64944228
662,Maruthi School,MRTSHL,13.00987519,77.64430819
663,Pottery Town,PTRYDO,13.0022431,77.60909943
664,Doddy (Towards Periyarnagara),DDI1,13.00257755,77.61206767
665,Indian Oil,INDOL1,13.00544295,77.63867969
666,Maruthi Sevanagara,MRTSVNG,13.00262563,77.63470858
667,Canara Bank Tannery Road,CNBTYR,13.00680094,77.61247259
668,ITC Factory,ITCFY,12.99851282,77.6223711
669,Muslim Colony,MLMCLNY,13.01065236,77.61517909
670,Venkateshapura,VKPM,13.01512125,77.61731724
671,Kadugondanahalli Police Station,KDGH12,13.02070393,77.61894458
672,KGH Railway Gate,KGHLY,13.02593572,77.61989335
673,Arebic College,ABCLLG,13.02993,77.620835
674,Govindapura Cross (Towards Glass Factory),GVPC,13.03217381,77.62178011
675,Mosque Road,MQRD,13.00031693,77.61607925
676,Glass Factory (Towards Nagavara),FLSF,13.03390667,77.62250667
677,Nagavara,NGW,13.03798852,77.62334539
678,Coles Park (Towards Frazer Town),COPK,12.9951789,77.60820981
679,Nagavara,NGW1,13.03722667,77.62340833
680,Telephone Exchange AGO ,TELEE,12.98188899,77.58860656
681,Glass Factory (Towards Govindapura Cross),GLSFCTRY,13.03459573,77.62281553
682,Chandrika Hotel,VSNV,12.98956671,77.5928501
683,Govindapura Cross (Towards Arabic College),GVPC1,13.032325,77.62198833
684,Arebic College,ARBCCLG,13.03034254,77.62103069
685,Cauvery Bhavana,CVRBN,12.97375598,77.58149618
686,KGH Railway Gate,KGH,13.02591912,77.61995411
687,Venkateshapura,VKTPM,13.01524431,77.61754461
688,Muslim Colony,MSLMCLNY,13.01059863,77.61522169
689,Chinnappa Garden,CNPGR,13.00302002,77.6035388
690,Vidhana Soudha,VDNSD,12.97748679,77.5906879
691,Indian Express,INDEXP,12.98376632,77.59637996
692,Cunningham Road,CUNHMRD,12.98787488,77.59432448
693,Ganesha Temple Vasanthanagara,GTVN,12.99524363,77.59213849
695,Indian Express,BKNDRC,12.9841816,77.59752785
696,Pottery Town,POTRY TWN,13.00243146,77.60914089
698,Jai Bharath Nagara,JBHNGR,13.00143514,77.62997623
699,Indian Oil,INDOL,13.00596028,77.63875701
700,Subbayanapalya,AYPTPL1,13.00755014,77.64091159
701,Steel Factory Banaswadi,STLFTYB,13.01330208,77.64958775
702,Banasawadi (Towards B Channasandra),BNSWDI,13.01437802,77.65093493
703,New Baldwin School,NBLDSH,13.01449056,77.657725
704,B Channasandra Bridge (Towards RM Nagara Police Station),RMNB,13.01322821,77.66268404
705,Ramamurthy Nagara Police Station,RMTPS1,13.01199212,77.66789429
706,ITI Circle,ITIC,13.00798593,77.68333056
707,ITI Colony Gate,ITIG,13.00547485,77.6853075
708,KR Puram Govt Hospital,KRPGH,13.00819893,77.69231077
710,JP Nagara 4th Phase,JPNGR-4,12.90624011,77.59451897
711,JP Nagara 5th Phase ,JPN 5,12.90625672,77.59037453
712,Jaraganahalli Cross,JRGH,12.90156673,77.57328574
715,JP Nagara 6th Phase,JPN6th 2,12.90633076,77.57773955
716,JP Nagara 5th Phase,JPP5,12.9064306,77.590464
717,JP Nagara 4th Phase,JPNGR-4p,12.90637365,77.59436351
718,JP Nagara 3rd Phase,718,12.90711325,77.60010014
719,JP Nagara 3rd Phase,JPN3,12.90711932,77.59975832
720,Jayadeva Hospital,JDVHS1,12.91662566,77.59948312
721,East End Jayanagara (Towards Banashankari),JEE0,12.91673202,77.59621961
722,Ragigudda Temple,RGGD,12.91677858,77.59340863
723,5th Block Jayanagara (Towards Banashankari),JAN5th,12.91695518,77.58382017
724,Marenahalli,MRHJPN1,12.91470545,77.58591929
726,RV Dental College,RVCD3,12.90972484,77.58584009
727,JP Nagara 15th Cross,JPN 15th Crs,12.90666812,77.58592491
728,Royal School,RSCL,12.90042919,77.58582176
729,Puttenahalli,PTH1,12.89804745,77.58282401
730,Bank of Baroda (Towards RV Dental College),BNKB,12.89334326,77.58630634
731,Brigade Millenium,BRM2,12.89258426,77.58201744
732,RBI Layout,RBIL,12.88786948,77.58197376
733,Gowrava Nagara,GRN,12.88480425,77.58272789
734,Navodaya Nagara,NDN1,12.88127302,77.58390739
735,Kothanuru Dinne Ganesha Temple,KDGT1,12.87689424,77.58414217
736,Water Tank Kothanur Dinne,WTK1,12.87456962,77.58417447
737,BK Circle (Towards Jambu Savari Dinne),BKCL,12.87056481,77.58308788
738,Jambu Savari Dinne,JDS,12.86573688,77.5809352
739,Royal Layout,RLTG,12.86925209,77.57573416
740,Glass Factory (Towards Jambusavari Dinne),GLF,12.8765536,77.56694553
741,Vinayaka Talkies,VNKC1,12.87491383,77.56979351
742,Hari Nagara Cross,KNC1,12.87912675,77.56725783
743,Sowdamini Kalyana Mantapa,SDMKMT,12.88389647,77.56666111
744,Konanakunte,KNK12,12.88577387,77.56674503
745,Konanakunte Cross,KKC,12.89042657,77.56447522
746,Konanakunte Cross,KKC1,12.89058026,77.56436858
747,Konanakunte,KNB1,12.885802,77.56679063
748,Sowdamini Kalyana Mantapa,SOU1,12.8838446,77.56670845
749,Hari Nagara Cross,KNC,12.87915241,77.56732079
750,Glass Factory (Towards Konanakunte Cross),GLS12,12.8765385,77.56688352
751,Vinayaka Chitramandira,VNKC,12.87476065,77.5701941
752,Sarathi Nagara,SRTNK1,12.87389338,77.57319452
753,Royal Layout,RLYTG,12.86920233,77.57591187
754,Jambu Savari Dinne,JSD1,12.8658724,77.58086869
755,Surabhi Layout,SRL1,12.86746335,77.58189067
756,BK Circle (Towards Kothanuru Dinne),BKCL1,12.87061642,77.58310397
757,Water Tank Kothanur Dinne,WTK,12.87442454,77.58409085
758,Kothanuru Dinne Ganesha Temple,KDGT,12.8774373,77.58388831
759,Navodaya Nagara,NDN,12.88139099,77.58379239
760,Gowrava Nagara,GRN1,12.88472764,77.58266729
761,RBI Layout,RBI,12.88799399,77.58191299
762,Brigade Millenium,BRM1,12.89248505,77.58186807
763,Puttenahallipalya,PTHLY,12.89563317,77.58183449
764,Puttenahalli,PTH2,12.89815656,77.58255518
765,19th Main 13th Cross HSR Layout,HSR13th,12.91591079,77.65171018
766,Oxford Dental College,ODC,12.90251665,77.5831965
767,Metro,MTRO,12.89319874,77.56730131
768,JP Nagara 15th Cross,JPN 15th CR,12.90714918,77.58563153
769,Jn of Agara,AGRA1,12.92442011,77.65015543
770,Agara (Towards Hebbala),AGRA,12.92453611,77.6503715
771,RV Dental College,RVDC,12.91137269,77.58563083
773,Indiragandhi Circle,IC CR1,12.9108518,77.57862069
774,Sarakki,SRK1,12.90950472,77.57303304
775,JP Nagara 1st Phase,JPN 1st,12.91132728,77.57458276
776,Indiragandhi Circle,IC CR,12.91096642,77.57877829
777,JP Nagara 24th Main 9th Cross,JPN 24th 9th Cr,12.9104418,77.58314877
778,MICO Layout Checkpost Gopalan mall ,MICLYOT,12.91359167,77.59972833
779,Jigani APC Circle,APCC,12.77903769,77.64376339
780,Jigani APC Circle,APCCRL,12.7792,77.64368302
781,Jn of Ring Road Bommasandra ,JNOFRNG,12.79140579,77.65704161
782,Maruthi Nagara,NVBDN1,12.791936,77.6578839
783,OMEX Circle Sriramapura ,SRMCIRCLE,12.79919913,77.66106847
788,Hebbagodi,HBGDI1,12.82561203,77.68296677
789,Bommasandra (Towards Chandapura),BMSNDR,12.81808194,77.69001137
790,Kottanayakana halli,KTN,12.81199283,77.68095784
791,Industrial Area Water Tank Bommasandra,BMI,12.81695043,77.67616644
792,Rupesh Hotel,JOSRMPUR,12.81164957,77.66600705
793,Biocon Jigani Road,DRNG,12.8078373,77.66380208
794,Yarandahalli,YRH,12.80471799,77.66291207
795,Sriramapura Bommasandra Road ,SRIBMS,12.80233797,77.66218483
796,OMEX Circle Sriramapura ,SRMCCIR,12.79905598,77.66146437
797,Sriramapura Bommasandra Road ,YRNDHLI,12.8022368,77.66201386
798,Maruthi Nagara,NYABVDN,12.7913977,77.65766481
799,Navya Badavane ,NVYBADV,12.78722794,77.65396254
800,Jigani APC Circle,APCR1,12.77905065,77.6434747
801,HMT Watch Factory,HMTWCH,13.05059084,77.53509012
802,Nelagadarenahalli,NGH3,13.03151537,77.50353056
803,Gruhalakshmi Layout,GRHLML,13.02992331,77.50025371
804,Ganga International School,GIS1,13.02823251,77.49635391
805,Depot-09 Peenya,D09,13.02000631,77.50054757
807,Kari Obanahalli,KRBHL,13.02492724,77.48657899
808,Thigalarapalya,TGP,13.01681819,77.48299903
809,Garudappa Circle Thigalarapalya,GRDPC1,13.0156903,77.48416709
810,Anjaneya Temple Thigalarapalya,ATTGP1,13.01369315,77.48343719
811,Andhrahalli Govt School,ANDHGS1,13.00953829,77.48292203
812,Andhrahalli,ADH1,13.00799641,77.48476578
813,Kalikanagara Shiva Temple,KLKAT,13.00863888,77.49020454
815,Kalikanagara Shiva Temple,KLKTDS,13.00892483,77.4902395
816,Andhrahalli,ADH0,13.00804629,77.48480746
817,Andhrahalli Govt School,ANDHGS,13.00947448,77.48290149
818,Anjaneya Temple Thigalarapalya,ATTGP,13.01375915,77.48339039
819,Garudappa Circle Thigalarapalya,GRDPC,13.01571108,77.48410256
820,Kari Obanahalli,KROBH,13.02500753,77.48657218
822,Indiranagara,INDN,13.02766486,77.49366585
823,Ganga International School,GIS2,13.02825646,77.49628693
824,Suvarna Nagara,,13.03327121,77.49453184
825,Nelagadarenahalli,NLGH,13.03152994,77.50344481
826,CS-SSM Public School,SSMPS,13.03243659,77.50387279
827,Nagavarapalya,NGRPLY1,12.98729818,77.66215423
829,Krishnayyana Palya NGEF,KRYP,12.99178027,77.65181391
830,Nagavarapalya,NGRPLY,12.9873555,77.66224776
831,Kaggadasapura,KGPR1,12.98403767,77.67891547
832,Bagmane Tech Park,BAGMNTECK,12.98072801,77.6567011
833,Bagmane Tech Park,BAGMTECH,12.98078694,77.65657444
834,APJ Abdul Kalam Statue,APJST,12.97982018,77.65435972
835,APJ Abdul Kalam Statue,APJST1,12.9800052,77.65439703
836,Geetanjali Layout,GTNGL,12.97898305,77.65323199
837,Geetanjali Layout,GTNGNR,12.97897701,77.65349673
840,Jeevanbheema Nagara Cross,JMBCR,12.96686455,77.66164095
841,Jeevanbheema Nagara Cross,JMBCR1,12.96675632,77.66143341
842,CV Raman Nagara (Towards Benniganahalli),CVRMGN,12.98576208,77.66380998
843,Kaggadasapura Main Road,KGDSOMGR,12.98548955,77.67235716
844,Kaggadasapura,KGPR2,12.9840956,77.67889573
845,Malleshpalya New Bus Station,VGNB,12.97260991,77.67786259
846,Military Accounts Office,MLRYAO,12.96670184,77.62079318
847,Helicopter Division,HCPD,12.95593447,77.67664333
849,Helicopter Division,HELDIV,12.95580642,77.67741628
851,Mahadevapura,MDPRA,12.99713716,77.6905052
852,Mahadevapura Ring Road,MDPRD,12.99132156,77.68773031
853,Mayohall,MYH1,12.973501,77.61015285
854,Richmond Circle,RICHMD,12.96748409,77.59948571
855,T Dasarahalli,TDSH,13.04265607,77.51322116
856,8th Mile (Towards Jalahalli Cross),8THMIL,13.04508018,77.50855827
857,Widia Factory,WF,13.04866771,77.49673112
858,Jindal,JND,13.05349302,77.48336444
859,Madavara,MDV,13.05658623,77.47335083
860,Makali,MKL1,13.06560408,77.45312505
861,Adakimaranahalli (Nelamangala),ADKM,13.07036278,77.44462655
862,Binnamangala Towads Nelamangala),BNMG,13.0874753,77.41238187
863,Arishinakunte (Towards Jalahalli Cross),ARSKT,13.08030642,77.42405923
864,Adakimaranahalli (Nelamangala),ADKMH,13.07072696,77.44490183
865,Makali,MKL2,13.06588666,77.45354204
866,Madanayakanahalli,MDNH5,13.0609732,77.46183756
867,TCI,TCI,13.05922617,77.46540934
868,Jindal,JNDL,13.05397828,77.48317663
869,Chikkabidarakallu,CKB9,13.0524131,77.48755572
870,Marison Factory,MRSNF,13.05067977,77.49239188
871,Widia Factory,WDAF,13.04904893,77.49697079
872,T Dasarahalli,TDSRH,13.0430362,77.51312934
873,Widia School,WDAS,13.05113705,77.50767684
874,Bagalagunte (Towards Chikkabanavara),BGLG,13.05631085,77.50726038
875,Bone Mill (Towards Chikkabanavara),BNML1,13.06398162,77.50487359
876,Widia School,WDAS1,13.05128033,77.50786315
877,Janapriya Apartment,JNPA,13.07328367,77.50315825
878,Chikka Banavara (Towards Hesaraghatta),CKB1,13.08046675,77.50240174
879,Sidedahalli,SDDH,13.06249401,77.49514502
880,Railway Station Chikkabanavara,CKBRS,13.075354,77.50461062
881,Shettyhalli,STHL,13.0648248,77.51723045
882,Shettahalli Cross,SHC,13.05037284,77.52575453
883,IAF Jalahalli ,IAF7,13.05297379,77.53023505
884,IAF Jalahalli ,IAF8,13.05350532,77.53065538
885,Kammagondanahalli Bridge,KGHB,13.05484989,77.53461914
886,Fathima Church Gangamma Circle,FATHCHRCH,13.05465338,77.54092557
887,Gangamma Circle (Towards KG Halli Bridge),GNG1,13.0564069,77.54639828
888,HMT Club House,HMTH,13.05346155,77.55054803
889,BEL Market,BELMRKT,13.05180862,77.55187072
890,BEL Market,BELM,13.05164917,77.55206127
891,State Bank of India,SBI-2,13.04980974,77.55352233
892,State Bank of India,SBI,13.04931774,77.55400321
893,BEL Circle (Towards Gangamma Circle),BELC,13.04609002,77.55592314
894,BEL Circle (Towards Mathikere),BELCRL,13.04508407,77.55670088
895,Kuvempunagara,KVMP,13.06960309,77.54138056
896,2nd stage Kuvempunagara,KMPNG2S,13.07312748,77.54132246
897,Singapura,SNGP1,13.07954414,77.53825995
898,MS Palya,MSPY2,13.08147925,77.54812193
899,Vidyaranyapura,VDPRA,13.08376314,77.56025804
900,Kodigehalli,KDLY,13.05987081,77.57666849
902,Byatarayanapura (Towards Hebbala),BRP1,13.06696042,77.59337292
903,JSS College,JSSC1,12.90393306,77.50841481
904,Amruthahalli,AMRH1,13.06568309,77.60078122
905,Glass House,GLHS,12.90698486,77.51216381
906,Bengaluru Children Hospital,BCHL1,12.90990035,77.51342614
907,Jakkur Layout,JKRL,13.06952219,77.60175047
908,Jnanakshi Layout,JNLO,12.91293951,77.51364793
909,Double Road BEML Layout,DRBEML,12.91561404,77.51341757
910,Halage Vaderahalli,BKRY,12.92023676,77.51396004
911,Maramma Temple Halage Vaderahalli,HLGVH,12.92264521,77.51431289
913,Jakkur,JKR,13.0793814,77.60763825
914,RR School,RRS1,12.92777054,77.51420978
915,Petrol Bunk RR Nagara,PTRLB,12.93288749,77.51612896
916,RR Gate,RRG,12.93556644,77.51806826
917,Venkateshwara Nagara Cross,VEKTESH,13.07169582,77.6189879
918,RR Gate,RRJSWG,12.93581559,77.51830173
919,Shivaram Karanth Nagara,SRKN,13.06811209,77.62885211
920,K Narayanapura Cross,KNPC1,13.06750154,77.63339332
921,RR School,RRS,12.9277196,77.51415983
922,Maramma Temple Halage Vaderahalli,HLGVDH,12.92270871,77.5143567
923,K Narayanapura Main Bus Stand,KNPR,13.06630811,77.64068328
924,Halage Vaderahalli,HLGVDRHL,12.92008081,77.51395215
925,BHEL Layout Cross,BMEL SBI,12.91614519,77.51305713
926,Jnanakshi Layout,JNKLO,12.91288058,77.51371199
927,Bengaluru Children Hospital,BCHL45,12.90985362,77.51346964
928,Indo American Hybrid Farm,IAHF,12.90409688,77.51236914
929,JSS College,JSSC,12.90381871,77.50850135
930,Patalamma Temple,PTLMT3,12.90481156,77.53011235
931,Somasandra Palya,SSP1,12.89879995,77.65129607
932,Channasandra (Towards Kengeri),CHNDRK,12.90281228,77.52150826
933,RK Hegde Nagara,RKHGD,13.07140669,77.63356145
934,SVR College,PLYT,12.90224713,77.65057922
935,Depot-21 BEML Layout,D21,12.90629974,77.51957798
936,BEML Layout 5th stage,BEML 5,12.90667884,77.52179885
937,NIFT College,NTFCR1,12.9122157,77.651797
938,Kuvempu Circle,KPC,12.90985604,77.52095925
939,Central Silk Board (Towards Banashankari TTMC),CNTSKBD,12.91679578,77.62172923
940,Double Road BEML Layout,DRBEML2,12.9149302,77.520712
941,Agara HSR Layout 27th Main,HSRL27,12.92373455,77.65175584
942,BEML Complex,BEMLC,12.91950704,77.52030955
943,Ideal Homes,IDL,12.92279619,77.51832061
944,Nimishamba Temple,NMST,12.92497892,77.51783195
945,Nimishamba Temple,NMBTL,12.92478392,77.51799977
946,Ideal Homes,IDLH,12.92271303,77.51845171
947,BEML Complex,BEMLCX,12.92006302,77.52041397
948,Double Road BEML Layout,DBLRD,12.91466179,77.52059359
949,Kuvempu Circle,KVMC,12.90983524,77.52102413
951,Channasandra (Towards BEML 5th Stage),CNSDR1,12.90286366,77.52127383
952,Police Station RT Nagara ,RTNPS1,13.02428766,77.59285585
953,CBI (Towards Vetarnary College),CBI3,13.02691051,77.5857832
954,RK Hegde Nagara,RKHEGD,13.07166148,77.63367658
955,Veterinary Hospital,VTRNC1,13.03258335,77.5876404
956,Weavers Colony,WEVRCOL,12.844463,77.58344484
957,Koli Farm Gate,KLFGT,12.84134275,77.58858599
959,Anchepalya,ANCPL,12.89245654,77.45777966
960,Jally Machine,CHDC,13.08588998,77.55564058
961,Ramohalli Cross,RMHLC1,12.88675869,77.45107497
962,Chikka Bettahalli,CHIKB,13.08942723,77.55613517
963,Bettahalli Layout,BETHLY,13.09247554,77.55948592
964,Kumbalagodu,KBG0,12.8785814,77.44560029
965,Thirumala Dhaba,TMLADC,13.09773354,77.56316898
966,Pepsi Gate,PPSI,12.87207623,77.43942671
967,Kanminake,KNMNK,12.86312181,77.43372755
968,Hejjala Cross,HJLC1,12.85539649,77.42692796
969,Mother Dairy Cross Yelahanka,DIRY,13.0994689,77.57707882
970,Dalai Lama College,DLC,12.85051258,77.42432927
971,Sheshagirihalli,SGHL2,12.84354145,77.42137843
972,Yelahanka Satellite Town,YST,13.09563048,77.57898433
973,Manchanayakanahalli Gate,WNDLG,12.83427328,77.414531
974,Sharavathi Hotel,SVHTL,13.0977288,77.5843363
975,Veeranjaneya Temple,VANJNT1,12.82861695,77.4121966
977,NES Office,NES1,13.09779197,77.59169501
978,Billa Kempanahalli,BKH,12.81198221,77.4039782
979,Byramangala Cross (Towards Bidadi),BMNGC,12.80216588,77.39703747
980,NES Office,NES,13.09771203,77.59148633
982,Bidadi Railway Station,BDDRS1,12.79970173,77.39101185
984,Sharavathi Hotel,SHHTL,13.09772993,77.58427961
985,Chikka Bommasandra Cross,CHKBC1,13.09352382,77.58239957
986,Bidadi,BDD,12.79714567,77.38485095
987,Mother Dairy Cross Yelahanka,MTD,13.09932728,77.57713716
988,Bidadi Railway Station,BDDRS,12.79979021,77.39081297
989,Byramangala Cross (Towards Kengeri),BMNGLC,12.80240673,77.39718016
990,Thirumala Dhaba,TMLDC,13.09762122,77.56306981
991,Billa Kempanahalli,BKMPH,12.81206409,77.40381404
992,Bettahalli Layout,BETHLI,13.09217783,77.55940988
993,Veeranjaneya Temple,VANJNT,12.82897385,77.41209961
995,Chikka Bettahalli,CHKHLY,13.08948614,77.55634205
996,Sheshagirihalli,SGHL1,12.84383549,77.42133342
997,Jally Machine,CHWDC,13.08595259,77.55566843
998,Laggere New Bus Stand,LGR,13.01055573,77.52501786
999,Maruthi Badavane,MARTB,12.84009119,77.58066028
1000,Bilavaradahalli,BILVRDH,12.8362129,77.57657653
1001,Bilavaradahalli,BLVRDHLI,12.83610052,77.57672699
1002,Muneshwara Temple,MUNT,12.83581649,77.57235382
1003,Muneshwara Temple,MUNT1,12.83575393,77.57209618
1004,Shanubhoganahalli 1st Cross,ISTCROS,12.82796489,77.56283511
1005,Shanubhoganahalli 1st Cross,SHNUIST,12.827866,77.56267357
1006,Dalai Lama College,DLC1,12.85054969,77.42416577
1007,Hejjala Cross,HJLC,12.85529621,77.42667714
1008,Kanminake Colony,KNMNKC,12.85820679,77.42897693
1009,Kanminake,KNMNK1,12.86326236,77.43363464
1010,Pepsi Gate,PPSIG,12.87216822,77.43929984
1011,Kumbalagodu,KBG2,12.87846014,77.44534373
1012,Ramohalli Cross,RMHLC,12.8863918,77.45055905
1013,Anchepalya,ANCPL1,12.89246672,77.45750617
1014,Jally Machine,LAMACH,13.08593159,77.55541831
1015,MS Palya,MSPY1,13.08131354,77.5482165
1016,Sambhram College,SMBG,13.08827709,77.54665024
1017,Kanshiram Nagara,KNHRMN,13.09058918,77.53884419
1018,Lakshmipura Cross,LKPC1,13.09203718,77.53399934
1019,Medi Agrahara Cross,MDHAHC,13.1012183,77.53079248
1020,Choudappa Layout,CHPL-1,13.10972414,77.5280421
1021,Shanubhoganahalli Bannerughatta ,SHANUBNP,12.82667738,77.56151716
1022,Gerupalya,GERPL,12.88765558,77.44423664
1023,Shanubhoganahalli Bannerughatta ,SHNBHO,12.8268183,77.56151201
1024,Subbarayappanapalya Cross,SRYPC,12.8892389,77.43763124
1025,Kencharayana Doddy,KNCD,12.81964007,77.55626548
1026,Bheemanakuppe Cross,BMNKPC,12.89473311,77.43679252
1027,Kencharayana Doddy,KNCD1,12.81975033,77.55614589
1028,Vinayaka Nagara,VNYKN,12.90299266,77.43017423
1029,Byatarayana Doddy,BTND,12.81582161,77.55230659
1030,Byatarayana Doddy,BNTD1,12.81593413,77.55218979
1031,Ramohalli,RMH12,12.90705812,77.41906459
1032,Kethohalli,KTHL02,12.90734066,77.40334649
1033,Dodda Aladamara,DAMR,12.90996109,77.39543529
1035,Byalamarana Doddy,BLR,12.80589129,77.54394061
1036,Byatarayana Doddy Cross (Towards Gulukamale),BTRC ?,12.80367756,77.5436213
1037,Chunchanakuppe,CNCNKP,12.91035354,77.38608086
1038,Byatarayana Doddy Cross (Towards Byatarayana Doddy),BYTDDCR2,12.80375089,77.54358349
1039,Channappa Circle,CNRPA,12.91007101,77.37334049
1040,Channappa Circle,CNDRPC,12.91021212,77.373355
1041,Cadabams,CDMS3,12.7978162,77.5287127
1042,Cadabams,CDMS1,12.79778847,77.52855235
1043,Chunchanakuppe,CNCNKP25,12.91040897,77.38629531
1044,Dodda Aladamara,DAMR10,12.9100324,77.39541426
1045,Vasudevapura,VSDPR,12.79782689,77.52103581
1046,Kethohalli,KTHL,12.90728658,77.4033867
1047,Ramohalli,RMH13,12.90699945,77.4190616
1050,Vinayaka Nagara,VNYKNG,12.90292459,77.43013768
1051,Bheemanakuppe Cross,BMNKPC1,12.89470293,77.43674591
1052,Kaggalipura,KGP,12.80041329,77.508416
1053,Subbarayappanapalya Cross,SRYPC1,12.88928148,77.43767551
1054,Gerupalya,GRPL1,12.88786406,77.44415578
1055,Pattareddypalya,PTPL,12.79407618,77.50538648
1056,Ivarukandapura,IKDP,13.1376459,77.4944856
1057,Gandhi Nagara,GDNGR,12.79017483,77.50447692
1058,Mathkur Cross,MTHC2,13.14303795,77.50221454
1059,APS College,APSCG,12.78262357,77.49975617
1060,Shivakote,SHIVK,13.13393205,77.51471277
1061,KEB Office Somanahalli,KEBS,12.782158,77.49908999
1062,Nelagulli Cross,NLC,12.77407599,77.4922149
1063,Nettigere Cross,NTGER,12.76111003,77.48655825
1064,Bolare,BLRE,12.75418862,77.48464042
1065,Ravagodlu Gate,RWG,12.74892622,77.48634511
1066,Gantakana Doddy Cross,GTKDC,12.74145471,77.48830649
1067,Yadamadu Kanakapura Road,EDM,12.73477618,77.48805436
1068,Kaggalahalli,KGHLI,12.72777531,77.48707333
1069,Kanyakumari ,knkri,12.71713806,77.48241873
1070,New Gabbadi,NWGBDI,12.71307886,77.48146834
1071,Kembbepalya,KBPL1,12.70254544,77.4808046
1072,Harohalli (Towards Kanakapura),HRLI,12.67995594,77.46957328
1075,Kembbepalya,KBPL,12.70302046,77.48085421
1076,New Gabbadi,NWGBDSTP,12.71374932,77.48158892
1077,Kanyakumari,KNKMR,12.71772543,77.48231888
1078,Kaggalahalli,KAGHLI,12.7277173,77.48691479
1079,Yadamadu Kanakapura Road,EDM-1,12.73588838,77.4880961
1080,Gantakana Doddy Cross,GATKDICRS,12.74115093,77.48815018
1081,Ravagodlu Gate,RWDLG,12.74891861,77.48640927
1082,Bolare Gate,BLG,12.75418302,77.48455326
1083,Nettigere Cross,NTGRC,12.76108281,77.48661929
1084,Hosa Doddy Gate,HDGT,12.76461303,77.48748606
1085,Petrol Bunk,PTRBU,12.68712339,77.47483114
1087,APS College,APSC,12.78281196,77.499769
1088,Gandhi Nagara,GDNR,12.79008804,77.50449867
1089,Pattareddypalya,PTPLy,12.79428263,77.50535072
1090,Kaggalipura,KGP0,12.80034992,77.50847579
1091,Santekatte ,TNKTE,12.80671241,77.51064876
1092,Santekatte,TNKT,12.80652645,77.51056765
1093,Saaluhunase,SLHS,12.81106748,77.51163626
1094,Saluhunase,SLHNS,12.81101083,77.51155632
1096,Udipalya,UDYP,12.82036323,77.51426973
1097,Dayananda Sagar Vidya Samste,DSVST,12.82465928,77.51348359
1098,Dayananda Sagar Vidya Samste,DSVS,12.82497208,77.51380249
1099,SaaluDoddy,SALDY,12.83051916,77.51298521
1100,SaaluDoddy,SLDY,12.83047215,77.51299127
1101,Lakshmipura,LKMPR1,12.83310583,77.513556
1102,Lakshmipura,LKMPR,12.83335109,77.51373453
1103,Shanimahathma Temple,SNMT,12.83709487,77.51603673
1105,Shanimahathma Temple,SHNMT,12.83717491,77.51611584
1106,Kuppareddy Kere,KREK,12.84238693,77.51774812
1107,Kuppareddy Kere,KPRDK,12.84253588,77.51771027
1108,Chinnayyanapalya Silk Farm,CHNSLKFM,12.85358192,77.52335468
1109,Chinnayyanapalya Silk Farm,CNFSLKF,12.85365804,77.52334971
1110,NICE Road Kanakapura Road Junction,NCRD,12.85757808,77.5273017
1111,NICE Road,NRCRD,12.85678315,77.52669855
1112,Vajramuneshwara Gate,VJRG,12.86472099,77.53313647
1113,Jyothi Farm,JTFM,12.85993253,77.52895553
1114,Weavers Colony,WEVRCL,12.84439347,77.58359801
1115,Hennur Cross (Towards Hennur Bande),HNRCS,13.03180006,77.63602616
1116,Hennur Bande,HNRBD,13.03666765,77.64048635
1117,Janaki Rama Layout,JRL,13.04329195,77.64225235
1118,K Narayanapura Cross,KNYPC,13.05278508,77.64598519
1119,Gubbi Cross (Towards Byrathi Bande),GBIC,13.0650008,77.65174568
1120,Byrathi Bande,BYB,13.07804286,77.65338808
1121,Kannuru,KNRU1,13.0930913,77.65430939
1122,Ittige Factory,JLIMC,13.10246585,77.62879247
1123,Kogilu,KGLV,13.10347178,77.61613957
1124,Maruthi Nagara,MRNG,13.10436032,77.60626616
1125,Kogilu Cross,KGLC,13.10388385,77.60025157
1126,AMC College,AMC,12.8299043,77.58778
1127,Sampangiram Nagara,SMPNGR,12.82539808,77.5862735
1128,Maruthi Nagara,MRTH,13.10445265,77.60633466
1129,Sampangiram Nagara,SMPR,12.82529341,77.58610767
1130,Sapthagiri Layout,SPTLO,13.10459616,77.61049737
1131,Sapthagiri Layout,SPTGI,13.10446167,77.61067215
1132,Vijaya Bank Bannerughatta ,VIJBBS,12.81536055,77.58296874
1133,Vijaya Bank Bannerughatta ,VIJBBAR,12.81505473,77.58291292
1134,Kogilu,KGLU,13.10364125,77.61598669
1135,Bannerughatta Circle (Towards Gottigere),BNGCRL,12.81392385,77.58103635
1136,Bannerughatta Circle (Towards Jigani),BNGRCL1,12.81326002,77.58136168
1137,Ittige Factory,JLIMC1,13.10255814,77.62946387
1138,Junglepalya Gate,JANGPGT,12.80809812,77.59071138
1139,Junglepalya Gate,JNGPGT,12.80805582,77.59055946
1140,Bellahalli,BLHL,13.09922881,77.64223097
1141,Thirumanahalli,THRMH,13.08197631,77.64163639
1142,Begihalli,BEGHLI,12.79788812,77.60392286
1143,Koppa Gate,KOPG,12.79640187,77.61596446
1144,Koppa Gate,KOPGT,12.79642313,77.61580967
1145,Hosuru Bande,HSRBND2,13.10621691,77.66088732
1146,Harapanahalli (Towards Jigani Double Road),HARPLIC,12.7916774,77.6237834
1147,Depot-27 Jigani,D27,12.78063485,77.63448474
1148,Chokkanahalli (Towards Marenahalli),CHKKNH,13.11337443,77.6877906
1149,Hamsa Farm,SNPNHL7,13.10782104,77.66565859
1150,Jigani Double Road,JIGDRO,12.78869423,77.62940555
1151,Chakkalatti,CKLT,13.12251721,77.66823062
1152,Jigani Double Road,JIGNDR,12.78851783,77.62966625
1153,Bommanahalli (Towards Madivala),BMH8,12.90695298,77.62849415
1154,MG Statue,MGSTH,12.97690168,77.59929239
1155,Deccan,DCN,12.90248167,77.62745333
1156,Bagalur Santhe,BGLR,13.13342221,77.66669001
1157,Oxford College,OXPRD,12.90105428,77.6271286
1158,Chakkalatti,CKLTY,13.12239569,77.66832006
1159,International School of Management,INTERSCM,12.89852563,77.62651015
1160,Hongasandra,HNSRA,12.8970364,77.62631603
1161,Sonnappanahalli,SNPNHL,13.10752013,77.6657847
1162,APR Kalyana Mantapa,aprkm2,12.89325102,77.62584635
1163,Tavakkal Hospital,TVKLH1,13.1058611,77.6644251
1164,St Francis School,STFCSC2,12.88895355,77.62572759
1165,St Francis School,STFCSC1,12.88891906,77.62562409
1166,Canara Bank Begur,CNRB1,12.88517242,77.62516617
1167,Vishwapriya Layout,VPLT,12.88197642,77.62478111
1168,PK Kalyana Mantapa Aralimara ,PKK,12.8799589,77.62459648
1169,Beguru Church,BGRC,12.8762036,77.62609678
1170,Hanuman Temple Beguru,HRHL a,12.87283959,77.62464607
1171,Beguru (Towards Bommanahalli),BGRATB,12.87350864,77.62516647
1172,Yelenahalli,YLHNLI,12.86647708,77.61604099
1173,Kadasonnappanahalli Gate,KSH2,13.1017273,77.65827456
1174,Harapanahalli (Towards Koppa),HRPN,12.79209862,77.62346293
1175,Nagenahalli,NGNH2,13.08141755,77.65323192
1176,Koppa,KOP,12.804402,77.62646531
1177,Byrathi Bande,BRTHBD,13.07782161,77.65341241
1178,Koppa,KOPP,12.80448777,77.62653624
1179,Dharmapura (Towards Beguru),DMPR,12.81294396,77.62755721
1180,Hulimangala Cross (Towards Nanjapura Road),HUMLIN,12.81389831,77.63751972
1181,Visthar,VSR,13.06935696,77.65926935
1182,Bingipura Cross,HULM1,12.82577846,77.62297234
1183,Bingipura Cross,HLLC,12.82586954,77.62304443
1184,Kothanuru ,KOTNR2,13.06173212,77.64891481
1185,Hullahalli Cross,HLHCR1,12.8280235,77.6233089
1186,Hullahalli Cross,HLHCR,12.82760783,77.62324705
1187,Bettadasanapura,BTDPR,12.84159785,77.63184286
1188,Bettadasanapura,BTRDSPR,12.84153363,77.63193157
1189,Byrathi Cross,BYRTC,13.05698661,77.64836274
1190,Byrathi Cross,BYC,13.05719034,77.64832095
1191,St Johns Hospital,STJH1,12.9293884,77.61586978
1194,K Narayanapura Cross,KNRC,13.05268852,77.64613033
1196,Jally Machine,BTDP,12.8362454,77.62507427
1197,Geddalahalli (Towards Hennur),GEDH,13.04839588,77.64544539
1198,Water Tank Koramangala,KROWT,12.92911207,77.62153537
1199,Nobel Residency ,NBRSCGT,12.85876167,77.61194
1200,Jn of Mylasandra Road,MYL,12.84244538,77.61843502
1201,Janaki Rama Layout,JANKRL,13.04320116,77.64253526
1202,Jn of Mylasandra Road,MYL1,12.84233493,77.61845329
1203,BDA Complex Koramangala,KEM BDAC,12.93084197,77.62215162
1204,Hanuman Temple Beguru,HMNTPL,12.87288996,77.62475792
1205,Hennur Bande Sai Baba Temple,HNRBD1,13.03672263,77.64080824
1207,Beguru Church,BGRC1,12.87618999,77.62614097
1209,Hennur Cross (Towards Lingarajapura),HNRCRS,13.03149404,77.63586786
1211,Beguru Lake,BGRL,12.8778383,77.62532524
1212,St Marys School,STMC,12.84583865,77.60941051
1213,PK Kalyana Mantapa Aralimara ,PKK1,12.879963,77.62465594
1214,St Marys School,STMSC,12.84593946,77.60942374
1215,Canara Bank Koramangala ,KRMCB,12.93501928,77.62417448
1216,Vishwapriya Layout,VLT,12.88199448,77.6248796
1217,Canara Bank Begur,CNRB,12.8850358,77.62524533
1218,Sony World 80ft Road  Koramangala,krmsyw80,12.93796099,77.62779667
1219,Hommadevanahalli,HMDVNH,12.84445188,77.59813669
1220,Hommadevanahalli,HDVH,12.84449307,77.59813841
1221,Galaxy Paradise,GLYPD,12.89148777,77.62600453
1222,Sony World 80ft Road  Koramangala,KRM SW,12.93744886,77.62737235
1223,Galaxy Paradise,GLXP,12.89152306,77.62589255
1224,APR Kalyana Mantapa,APRKM,12.89326182,77.62596209
1225,Hongasandra,HNGDR,12.89713506,77.62619229
1226,Basavanapura (Towards Hommadevanahalli),BSV,12.8436846,77.5943702
1227,Basavanapura (Towards Basavanapura Gate),BSPR,12.84370873,77.59442663
1228,International School of Management,ISOM,12.89849167,77.62663833
1229,Srinivagilu Ejipura ,SRVG1,12.93842147,77.63252469
1230,Oxford College,OBST,12.90076374,77.62723541
1231,Deccan,DCNBS,12.9023465,77.62732961
1232,Jn of New Bridge,DKRM,12.95528894,77.64129239
1233,Domlur Flyover (Towards Dhupanahalli),DMLFOR,12.95696427,77.64140253
1234,Dhoopanahalli,BOPBSTP,12.96376995,77.64145074
1235,Nayanappanahalli Cross,NYPCR,12.90350396,77.62729936
1236,Indiranagara 100ft Road,INDGR,12.9666309,77.64130675
1237,Virat Nagara Cross,VIRTNCR,12.9030069,77.62420228
1238,Kaveri Nagara,KVRNGRBS,12.90001892,77.62236246
1239,HAL 2nd Stage 12th main,hal58,12.97023185,77.64236686
1240,Kodichikkanahalli Cross,KODCKNCR,12.89783412,77.62150295
1241,Police Station Indiranagara,kfcps2,12.97857166,77.64076865
1242,Kodichikkanahalli,KODCKL,12.89836484,77.61809156
1243,1st Main Kodichikkanahalli ,KDC1,12.89839052,77.61531899
1244,Shanbogappa Layout,shgn ?,12.89795667,77.61112833
1246,Vijaya Bank Layout Petrol Bunk,VJYBNPTRBN,12.89225871,77.61163581
1247,Devarachikkanahalli,DCH4,12.88898572,77.61555432
1248,Rama Temple Devarachikkanahalli,RMDVCK,12.88833023,77.61934754
1250,Golden Park Apartment,KDHCRSS,12.89472667,77.620275
1251,Indiranagara 100ft Road,IND100FT,12.96711377,77.64149626
1252,Dhoopanahalli,DPOHLI,12.96322519,77.6416524
1253,Pillaganahalli Cross,????????,12.84693282,77.58105188
1254,Golden Park Apartment,GLDAPRT,12.89467833,77.620295
1255,Pillaganahalli Cross,PLGHCR,12.84693437,77.58113286
1256,Domlur Flyover (Towards Koramangala),DMLR,12.95792006,77.64153678
1257,Pillaganahalli,PLGH,12.84940438,77.58189185
1259,Pillaganahalli,PLGH1,12.8494289,77.58200999
1260,Jn of New Bridge,DL1,12.95451442,77.6414326
1261,Rama Temple Devarachikkanahalli,RMDCCK,12.88829729,77.61937744
1262,Rama Temple Devarachikkanahalli,RMTPLDV,12.8882146,77.61921198
1263,Kembathalli Cross,KMHC2,12.8552352,77.58038416
1265,Vijaya Bank Layout Petrol Bunk,VJYBNKPTR,12.8920591,77.6118257
1266,Lal Bahaddur Shastri Nagara,LBSN2,12.85721775,77.57329813
1267,Shanbogappa Layout,shgn,12.89772333,77.61094333
1268,Anjanapura,AJNPR,12.86196984,77.56378981
1269,1st Main Kodichikkanahalli ,KDCK1M,12.89849154,77.61541023
1270,Srinivagilu Ejipura ,SRIVG,12.9386204,77.63313201
1271,Anjanapura Cross,APNCS,12.86180431,77.56091309
1272,Kodichikkanahalli,KODCKN,12.89833125,77.61793731
1273,Vajragiri Estate,VGR,12.85748197,77.55652787
1274,Kodichikkanahalli Cross,KODICKLCR,12.89792667,77.62150833
1275,Vajragiri Estate,VJRGS,12.85778871,77.55663233
1276,Kaveri Nagara,KVRNGRBS1,12.90014833,77.62238
1277,Anjanapura Cross,ANPCR,12.86166018,77.56056922
1278,Virat Nagara Cross,VIRTNGRCR,12.90293873,77.62424343
1279,Sony World 80ft Road  Koramangala,SYWD3,12.93673009,77.62652607
1280,Anjanapura,AJN1,12.86201124,77.56383263
1281,Canara Bank Koramangala ,KRMCB1,12.93422564,77.62384989
1282,Nayanappanahalli Cross,NYPNHIC,12.90356123,77.62720465
1283,Nandi Garden Kothanur,NGN1,12.86738362,77.56554335
1284,BDA Complex Koramangala ,KRMBDAC1,12.93123908,77.62250884
1285,Nandi Garden Kothanur,NDGK,12.867471,77.5656985
1286,Avalahalli (Towards Anjanapura),AVB1,12.87283114,77.566636
1287,Avalahalli (Towards Konanakunte),AVN1,12.87289023,77.56656024
1288,KRB Indian Oil Petrol Bunk Kembathalli ,INPK,12.85942696,77.56984897
1289,KRB Indian Oil Petrol Bunk Kembathalli ,KRB INIPBK,12.85928285,77.5699582
1290,Lal Bahaddur Shastri Nagara,LBSN3,12.85722821,77.57356022
1291,Depot-34 Kottanur,D34,12.87193846,77.58619537
1292,Kembathalli Cross,KMBC1,12.8551349,77.58042191
1293,Sri Adishakthi Temple,ADSKT,12.85559756,77.58514007
1294,Sri Adishakthi Temple,srhbn,12.85514139,77.58484149
1297,Vijaya Enclave Apartment,VJBKENKAP,12.89350572,77.61014117
1298,Bilekahalli Circle,BILKLC,12.89493067,77.60932098
1299,Sri Veerabhadra Swamy Bilekahalli,SVESMB,12.89768167,77.60647333
1300,Bilekahalli Kalyani Motors,BLKKMS,12.90198913,77.60135631
1301,Bilekahalli Kalyani Motors,BLKKMS1,12.90202811,77.60138071
1302,Sri Veerabhadra Swamy Bilekahalli,SVERSB1,12.89779349,77.60644017
1303,Bilekahalli Circle,BLKLCR,12.8949751,77.60927958
1304,Vijaya Enclave Apartment,VJENKAP,12.89351801,77.61008113
1305,Thogur Cross,TGRC,12.8435867,77.64418914
1307,Neeladri Nagar ,NLDRN,12.84155252,77.64799384
1308,Depot-19 Electronic City,Depot-19,12.84709061,77.67219627
1309,Concord Apartment Electronic City,CONR,12.84055838,77.65163795
1310,Concord Apartment Electronic City,CNCAP,12.84057459,77.6517866
1311,Wipro Gate Shikaripalya Cross,WPTGT1,12.83902423,77.65892537
1312,Wipro Gate Shikaripalya Cross,WPRGT1,12.83894928,77.6589777
1313,Ramakrishna Ashrama,RMKA,12.94719176,77.56776613
1314,Hanumanthanagara Ward Office ,HNTMWRD,12.94340242,77.56601632
1315,Subramanya Swamy Temple,SUBST,12.94169261,77.56199671
1316,Nirmala Store,NIRMS,12.94157107,77.55956637
1317,Apex Bank,APXB,12.94176426,77.55556899
1318,Huskur Gate,HSKGT,12.83604087,77.67918092
1319,Huskur Gate,HSKGT1,12.83725631,77.67895739
1321,Singena Agrahara Cross Fruits Market ,SGHNAG,12.8423539,77.68709207
1322,Shankara Nagara,SNKR2,13.01592897,77.54368853
1323,BTL College,BTLCLG,12.81170836,77.69478554
1324,Shankara Nagara,SKRBS,13.01587832,77.54377104
1325,Doddamma Temple (Towards Depot-38),DDMD1,12.84720014,77.69068036
1326,Doddamma Temple (Towards Huskur),DDMD,12.84747281,77.69090261
1329,Mahalakshmi Layout,MLO3,13.01189027,77.54402134
1330,Depot-38 Gate,D38CHNH,12.848943,77.69249787
1331,Sumuka Layout,SUMKL,12.85481441,77.69989621
1332,Sumuka Layout,SUKMH,12.85472788,77.70017545
1333,Kathriguppe,KTGP,12.92519475,77.55038175
1334,Depot-13 Gate,KMY13,12.92387907,77.55374412
1335,Huskur (Towards Chikkanagamangala Gate),HUSK,12.86143473,77.70515635
1336,Depot-13 Gate,KMT13,12.92376204,77.55376939
1337,Srinavasa Temple,SRNVT,13.00824258,77.54509877
1339,Huskur (Towards Gattahalli),HSKU,12.86146706,77.70524417
1341,Hoskerehalli Junction,HSKHC,12.93032903,77.54355905
1342,Chinthala Madivala Cross,CHNMDLC,12.85453596,77.71222704
1343,Mahalakshmi Layout Entrance,MLCPMETC,13.00774774,77.54796429
1344,Chinthala Madivala Cross,CHNMDL,12.85458655,77.7123338
1345,Hoskerehalli Cross ,HSKRHL,12.93294772,77.54544472
1346,Srinivasa Temple,SVSTPL,13.00832743,77.54500146
1347,Seetha Circle,SETCR1,12.93707814,77.54878681
1348,Kaggalipura,KGLPR1,12.85321359,77.71868407
1349,Kaggalipura,KGLPR3,12.85315113,77.7185993
1350,Bank Colony,BNKCLY,12.9386396,77.55310068
1351,Srinivasa Nagara,SRNN,12.93810593,77.55662492
1353,Maruthi Circle,MRTC,12.94344452,77.5584915
1354,Ebenezer International School,SCHLN,12.83937419,77.70650258
1355,Geleyara Balaga Extension Rajajinagara,GBE,13.00594545,77.54112381
1356,Subramanya Swamy Temple,SUBS,12.94354885,77.56167645
1357,Head Start School Gate,HSSG1,12.86113381,77.73242582
1358,Ganesha Bhavan,GNSBHV,12.9440829,77.56423059
1359,Muttanalluru Cross,MUTNLO,12.84306239,77.7275245
1361,Kaggalipura Cross,KGPCR2,12.8555511,77.73110816
1362,Kaggalipura Cross,KGPCR1,12.85587814,77.73116719
1364,Harohalli Gate,HROGT2,12.86519638,77.73256487
1365,Kammasandra Gate,KOMS1,12.87093116,77.73385231
1366,Nandini Layout Bus Stand,NLO1,13.01141179,77.53589221
1367,Muttanalluru Cross,CNPC,12.88743104,77.73836795
1368,Muttanalluru Cross,CNPCR,12.88739997,77.73841943
1370,Thigalara Chowdenahalli Cross,THICHO,12.88174936,77.75709375
1371,Jai Maruthi Nagara Circle ,JMNC,13.00990017,77.53277204
1372,Chambenahalli,CHMB,12.87933123,77.76157496
1373,Avalahalli BDA Park Girinagara,ABL,12.94323054,77.54261674
1375,Yamare,YMRI,12.87239399,77.76639325
1376,Yamare,YMRE,12.87244068,77.76635732
1377,Crystal Apartment Sarjapura Road ,KSTLA,12.86774119,77.76708617
1378,Sompura Gate,SOPG1,12.86212884,77.77196752
1379,Ravi Badavane Jai Maruthi Nagara,JRB,13.0067326,77.53229948
1380,Somapura Gate,SOPG,12.86210878,77.77200715
1381,Nandhini Layout Outer Ring Road,FFC ORR,13.01177418,77.52864386
1382,Thindlu Gate,THNLU,12.8603581,77.79887651
1383,Thindlu Gate,THINLUG,12.86044319,77.79885042
1384,Nandhini Layout,JBWN2,13.0146618,77.53064791
1385,Mahal Chowdadenahalli,MHLCHOD,12.87217202,77.80850265
1386,Mahal Chowdadenahalli,MHLCOG,12.87219476,77.80875731
1387,Rajkumar Punya Bhoomi,RJKS1,13.01816644,77.53157623
1388,Jn of Pandithana Agrahara,JNOF PND,12.88486446,77.81577562
1389,Jn of Pandithana Agrahara,JNOPNDAGR,12.88504313,77.81591891
1390,Kanteerava Studio,KTSSL,13.02162146,77.53246583
1391,Rajkumar Punya Bhoomi,RJKSD1,13.01859398,77.53189635
1393,Nandhini Layout Outer Ring Road,FFC ORR NL,13.01158719,77.52871834
1394,Jai Maruthi Nagara,JMN3,13.00759076,77.53118291
1395,Saraswathipuram,SSPRM1,13.0091504,77.53824422
1396,Mahalakshmi Layout,MLO1,13.01203939,77.5439363
1397,Pipeline Park,PIPEP,12.97035831,77.54620364
1398,Pipeline Binni Layout ,PIPE,12.96775494,77.54513696
1400,Attiguppe (Towards Vijayanagara),ATGP,12.95780009,77.53384684
1401,Garments Factory Borugunte,GRMFTY,12.84525945,77.78296332
1403,Chandra Public School,CPS1,12.96018726,77.52955071
1406,Ganesha Temple Chandra Layout ,CLOGT,12.95771537,77.52867586
1407,Thyavakanahalli Gate,TYKHGT1,12.82754787,77.78630056
1408,Chandra Layout Cirlce,CLO1,12.95827325,77.52634499
1409,Thigalara Chowdenahalli Cross,TCWCR,12.88192062,77.75679294
1410,S Medahalli,SMDLI1,12.82327025,77.78606807
1411,Nagarabhavi Circle,NGRCL,12.95845489,77.51901091
1412,Silk Farm,SLKFM1,12.81530868,77.78523628
1413,Sriram Properties,SRMPRPTS,12.81136001,77.7847516
1414,Sriram Properties,SRMPTS,12.81060541,77.78446598
1415,Thigalara Chowdenahalli Cross,TGCWCR,12.8818992,77.75682809
1416,Nagarabhavi Village,NBV,12.95698702,77.51580329
1417,Anjaneya Temple Bidarakuppe,ANJTPBD,12.79977059,77.78252374
1418,NGEF Layout Nagarabhavi,NGFF,12.96095504,77.50975549
1419,St John Hospital,STH,12.92896772,77.61540068
1420,Manasa Nagara,MNSNGR,12.95930528,77.51678256
1421,AR Complex BTM Layout,MRNCL,12.92533831,77.61532111
1422,Indlubele,INDBE1,12.79081314,77.77617381
1425,Nagarabhavi Circle,NGBVC,12.96007191,77.51980152
1426,Jai Bheema Nagara,JBMN,12.9194136,77.61571799
1427,Maruthi Nagara,MTHYNGR,12.96180017,77.52173588
1428,16th Main Hopcoms BTM Layout ,BTM16 Hop,12.91967484,77.61038853
1429,Byraveshwaranagara,BRVN,12.96532487,77.52325586
1430,16th Main BTM Layout ,BTM16,12.91663359,77.60891085
1431,Ramohalli,RMOLI,12.7743132,77.77134776
1432,Udupi Garden Petrol Bunk,UPGDRPBK,12.91714444,77.61023225
1433,Kalyananagara,KLNN,12.96741272,77.5238405
1434,Ramohalli,RMOHLI,12.77403444,77.77112092
1435,17th Main Hopcoms BTM Layout ,BTM 16th Hop,12.91965653,77.61025422
1436,Moodalapalya,MDLPA,12.97059902,77.5248729
1437,Tavarekere Aladamara,1437,12.92206667,77.61055833
1439,Tavarekere Mori,THVKRMR,12.92496546,77.60884644
1440,Saraswathi Nagara,SRNGRA,12.97348321,77.53019538
1441,Prashanth Nagara,PSNTN,12.97561447,77.53118474
1442,Chikka Adugodi,CHKADGD,12.92887957,77.60935029
1443,Sudduguntepalya,SDPY2,12.93115931,77.60986465
1444,Jn of Anekal Road,JNOFANKR,12.768528,77.77015559
1447,Mayasandra Gate,MYSNR,12.75036545,77.74774074
1448,Mayasandra Gate,MYSDR,12.7504885,77.74784847
1449,Chikka Adugodi,CKADG,12.92903833,77.60946833
1450,Thattanalli Gate,TTVSMGDP,12.73535263,77.73079509
1451,Tavarekere Mori,TVKMRI,12.92501923,77.60887461
1453,Tavarekere Aladamara,1453,12.92221,77.61053833
1454,Besthamanahalli,BMH5,12.73083763,77.72667789
1455,Besthamanahalli,BSTH11,12.73086573,77.72665586
1456,Gangothri Circle,GNGTC,12.91966477,77.61293955
1457,Karpura Gate,KRPGT12,12.72448829,77.72088057
1459,Dodda Hagade,DHGD,12.74600868,77.68907017
1460,Shridi Sai Bhavan Adugodi,,12.92343333,77.61468167
1462,AR Complex BTM Layout,MRTN1,12.92514406,77.6151775
1466,Dinnur Sudhamanagara,DNR31,12.71444728,77.70590552
1467,Prashanth Nagara,PRSGR,12.9756415,77.53124958
1468,Saraswathi Nagara,SWTHN,12.97382989,77.53037358
1469,Anjaneya Temple Anekal,ANJTM,12.71738993,77.70035418
1470,Kavala Hosahalli,KVLHLY,12.72591807,77.70433165
1471,Priyadarshini Layout,PRYLT,12.97142151,77.52686151
1472,Janatha Colony,JANTCOL,12.72427221,77.70374245
1473,Janatha Colony,JNTCON,12.72424082,77.70381218
1474,Iggluru,IGGLR,12.78660567,77.70331087
1475,Moodalapalya,MDLPLYA,12.97027128,77.5248469
1476,Chikka Hagade Gate,CHGATE,12.73152624,77.70631226
1477,Sidi Hoskote,,12.72976768,77.68659822
1478,Kalyananagara,KLNGR,12.96738996,77.52377629
1479,Avadadenahalli Gate,AVDLYGT,12.74667616,77.70783595
1480,Byraveshwaranagara,BYRLT,12.96518406,77.52336152
1481,Karpura Gate,KARRGT,12.7357569,77.70776359
1482,Byagadadenahalli Gate,BYGDNLI,12.7520764,77.70656738
1483,Maruthi Nagara,MARGR,12.96172963,77.52182067
1484,HAL Main Gate (Towards Marathahalli Bridge),HALMG,12.95844606,77.66603425
1485,RK Farm,RKFM,12.75925997,77.70366254
1486,Nagarabhavi Circle,NGBVC1,12.95967782,77.51994835
1487,Hale Chandapura,CHNDPR,12.80179478,77.71165823
1488,Chandra Layout Circle,CLO2,12.95838008,77.52644836
1489,Surya Nagara,SURNR,12.79078536,77.70565228
1491,Surya Nagara,SURN,12.79076903,77.70572073
1492,Iggluru,IGGLRU,12.78675235,77.70327031
1493,Commando Hospital,CMDH,12.96265764,77.62757386
1494,Ramakrishnapura Gate,RAMKG,12.77901676,77.701916
1495,Marasur Gate,MARSRGT,12.76953128,77.70146367
1496,Marsuru Gate,MARGT,12.76994975,77.70138498
1497,Byagadadenahalli Gate,BYGDNL,12.75236331,77.70660202
1498,Ganesha Temple Chandra Layout ,CHLT,12.95832401,77.52881046
1499,Spirit Junction Chandra Layout,SPJCL,12.96056653,77.52939774
1500,Income Tax Layout,INTAX,12.96008551,77.531285
1501,Attiguppe (Towards Deepanjalinagara),ATGPE,12.95790131,77.53402576
1502,Karpura Gate,KARRGAT,12.73568572,77.70785946
1503,Chikka Hagade Gate,CHIHGT,12.73131775,77.70644697
1504,RK Farm,RKF,12.75907527,77.70364265
1505,Kavala Hosahalli,KVLHL,12.72590282,77.704241
1506,Anjaneya Temple Anekal,ANJMT,12.71732972,77.70034576
1507,Shanimahathma Temple,SHNMHTDN,12.71615032,77.69515284
1508,Gowrenahalli,GORNL,12.72319578,77.6813877
1509,Gowrenahalli,GRNHLI,12.72317542,77.68117933
1510,Honnakalasapura Cross,,12.72896831,77.67656273
1511,Indluvadi Cross,INDICR,12.73193874,77.67077852
1512,Indluvadi Cross,INDLWDC,12.73207256,77.67077426
1513,Suragajakkanahalli,SRGJKL,12.73642835,77.66900452
1514,Kumbaranahalli,KUMBRL,12.74772752,77.66034633
1515,Kumbaranahalli,KMBRL,12.74790429,77.66056518
1516,Haragadde,HRGD,12.76443769,77.65402203
1517,Haragadde,HRGDD,12.7644556,77.65395496
1518,Madapatna,MDPT,12.77251968,77.64804127
1519,Madapatna,MDPN,12.77251263,77.64819508
1520,KEB,KEB1,12.77691114,77.64478074
1521,KEB,KEB,12.77697185,77.64492623
1522,Cheemasandra,CMS-1,13.04772179,77.7393822
1523,Budigere Cross (Towards Hoskote),BDC-1,13.04648593,77.75046047
1525,Hoskote Kodi,HSKKD,13.05635506,77.76705935
1526,Hoskote KEB Circle (Towards Nanda Shree),HSKEB,13.07216741,77.78739762
1527,Kumbalahalli Gate,KMLHLG,13.08845718,77.78072312
1528,Halappanahalli,APNH,13.1020439,77.77783688
1529,Shanknipura Gate,SNKLPR,13.10691789,77.77614282
1530,Lakkondahalli Temple,LAKTPL,13.11060753,77.77422851
1531,Venkapura Gate Lakondalli,VENRGT,13.11448086,77.77358943
1532,Lakkondahalli Gate,LAKGT,13.11703005,77.77334301
1533,Thimmasandra Gate,TMS G,13.12415958,77.77330528
1534,Richmond Circle,RCHMDCR,12.96565337,77.60294226
1535,CS-Sunvalley Public School Thimmasandra,PUBSC,13.12867704,77.77299517
1536,Sun Valley Public School Thimmsandra ,PUBLICS,13.12848701,77.77376363
1537,Hasigaala,HSGL2,13.13536667,77.77493503
1538,Kammasandra,KAM,13.14987635,77.7809364
1539,Yanagunte,YNGTE1,13.15783529,77.79074339
1540,Monotype Corporation,MNTYP,12.92155964,77.57098118
1541,Kendriya Vihara,KEDVHR,13.10652852,77.60158772
1542,Kaveri Nagara,KAVRNGR,12.9197969,77.56921479
1543,Sadhapanalli Gate,SADGT,13.16289435,77.79271959
1544,Attibele Sulibele,ATBLE,13.16979762,77.79381003
1545,Devanahalli Cross Sulibele,DEVCRS,13.18487384,77.79804192
1546,Devanahalli Cross Sulibele,DSBLC,13.18498626,77.79793827
1547,Hunasamaranahalli,HNSM1,13.14526659,77.61740028
1548,Nagalakshmi Kalyana Mantapa,BSKNKM,12.92738801,77.56788811
1549,SMVIT Cross,SMVIT-1,13.15207031,77.62013141
1550,Bettahalasuru Cross (Towards Devanahalli),BTHC,13.15710267,77.62336153
1551,Balepura Gate,BLRG2,13.1977421,77.77703119
1552,Vidyanagara Cross Chikkajala,VDHC,13.16121606,77.62647661
1553,Chikkajala,CKHJ,13.1724984,77.63360089
1554,KIMS College,KIM,12.92717526,77.56175707
1555,Doddajala,DDJLA1,13.17729587,77.65328389
1556,Devegowda Petrol Bunk (Towards Monotype),DVGPB1,12.92272755,77.56027238
1557,Thabarahalli,THBH,13.18859703,77.64422122
1558,Depot-13 Kathriguppe,D13KTR,12.92481917,77.55425426
1559,Sadahalli Gate,SDHG1,13.19074621,77.6457786
1560,Devegowda Petrol Bunk (Towards Padmanabhanagara),PBNK,12.92141017,77.56026508
1561,Chikkahosahalli Gate,CHKHGT,13.20728433,77.76295141
1562,Janatha Bazaar Banashankari ,JNTBZ,12.92831264,77.54575018
1563,Airport Trumpet,APRT,13.19918532,77.65806901
1564,Channahalli Gate,CHNGAT,13.21274452,77.75480354
1565,Hoskerehalli Cross,HOSKRE,12.93262454,77.5452921
1566,Haraluru Gate (Towards Devanahalli),HLRGTE,13.21950219,77.7524814
1567,Seetha Circle,STHACL,12.93774272,77.54968336
1568,Thellahalli Gate,THEGATE,13.22069184,77.74822817
1569,Bank Colony,BANKC,12.93856255,77.55304251
1570,Srinivasa Nagara Bank Colony ,SRNBNK,12.93855027,77.5541435
1571,Air Lines Dhaba Gate,AIDHGT,13.22268882,77.74080664
1572,Apex Bank,APEXB,12.94181404,77.55590318
1573,Kannamangala Gate,KMG,13.20707692,77.66829142
1574,Srinagara Bus Station,SNR,12.94426486,77.55471022
1575,Budihal Gate (Towards Devanahalli),BODGT,13.22433676,77.73844175
1576,Sowthegowdanahalli,SGHLI,13.23102182,77.73035097
1577,Rayasandra Gate,RYGAT,13.2335237,77.72704031
1578,Bachahalli Gate,BHLG,13.21223046,77.67320557
1581,Palya Gate,KANMGT,13.22145993,77.68229792
1584,Giriyamma Circle,GCSRD,13.24458907,77.71324514
1585,Kohinoor Ground,KOHGRD,12.94735343,77.56631854
1586,Kannamangalapalya ,KNMPLY,13.22161652,77.66990204
1587,Kempalingapura,KMPLR,13.23051616,77.6646055
1588,Uganawadi Cross,UGWC,13.2318447,77.65560536
1589,Uganawadi,UGNW,13.23900513,77.6569754
1590,Solur,SLR21,13.26466305,77.65540747
1591,Solur Gate,SLRGT3,13.26996105,77.6562822
1592,Devanahalli New Bus Station,DVNWSTD,13.24569114,77.71323168
1593,Vishwanathapura,VSWHPR,13.27214061,77.64826098
1594,Vishwanathapura,VSTPR1,13.27196368,77.64911254
1595,Giriyamma Circle,GRSCL,13.24491415,77.71303431
1596,Solur Gate,SLRGT,13.26988904,77.6562376
1597,Solur,SLR3,13.26459331,77.6557434
1598,Rayasandra,RYSNDRA,13.21880652,77.72577247
1600,Peddanahalli,PDHLI1,13.24692975,77.64812083
1601,Agalakote,AGKOT1,13.21286715,77.73608634
1602,Uganawadi,HUGD,13.23921163,77.65689781
1603,Uganawadi Cross,UGWDC,13.23187921,77.65608602
1604,Kempalingapura ,KMPLR2,13.23057964,77.66460514
1606,Bettakote,BTK,13.19928094,77.73920441
1607,Kannamangalapalya ,KMNPLY,13.2217134,77.6699872
1608,Baladimmanahalli,BAHLLY,13.18968967,77.74332579
1609,Dhaba Gate,DABGT,13.22648617,77.68711523
1610,Chikka Sanne Gate,CSNG,13.23046206,77.69101935
1611,Bettakote,BDKTE,13.19930925,77.73914242
1612,Hiranandani Villas,HRN,13.23893665,77.6995316
1613,Agalakote,AGKOT,13.21285389,77.7360863
1614,Rayasandra,RYSNDA,13.21881101,77.72574267
1615,Anjaneya Temple Devanahalli,ANJTPL,13.23508433,77.71297704
1616,Rani Circle,RNICR,13.26783976,77.71941637
1617,Sai Baba Temple Attibele,SBTAT,13.28289827,77.72276812
1618,Avathi,AVTI,13.29632807,77.72547817
1620,Sai Baba Temple Attibele,SBTA,13.28290291,77.72301235
1621,Rani Circle,RNICR1,13.26728253,77.71979506
1622,Vijayapura Cross,VJPCR,13.25686196,77.71722554
1623,Vijayapura Cross,VJPCR2,13.25680862,77.71736581
1624,Devanahalli Old Bus Stand,DVHOBS2,13.24826964,77.71545133
1625,Devanahalli Old Bus Stand,DVHOS1,13.24826316,77.71560821
1626,Devanahalli New Bus Station,DHNWSTP,13.24554077,77.71296344
1627,Devanahalli Talluk Office,DVHTO,13.24340703,77.70840618
1629,Marathahalli,MRHLLI,12.95609833,77.69380013
1630,Sanna Amanikere,SNAMKR,13.23408844,77.69474854
1631,Chikka Sanne Gate,CSN,13.23025238,77.6910374
1632,Life Style,LFSTY,12.96672149,77.60945756
1633,Dhaba Gate,DBG,13.22635152,77.68726496
1634,Palya Gate,PLGT1,13.22133877,77.68246229
1635,Rayasandra Gate,RAYGT,13.23332407,77.72736439
1636,Sowthegowdanahalli,SOWHLLY,13.23107732,77.73036602
1637,Kannamangala Gate,KMGT,13.20687791,77.66851611
1638,Budihal Gate (Towards Air Lines Dabha Gate),BOODGT,13.22427503,77.7386248
1639,Airport Trumpet,ARPT,13.19875076,77.65773758
1640,Air Lines Dhaba Gate,ALDBGT,13.22272186,77.740983
1641,Thellahalli Gate,TELGT,13.22064868,77.74815507
1642,Sadahalli Gate,SDHG2,13.19054261,77.64606563
1643,Thabarahalli,TRH,13.18815426,77.64433874
1644,Haraluru Gate (Towards Channenahalli Gate),HLTGTE,13.21976924,77.75240617
1645,Chikkajala,CKJH,13.17280999,77.63318024
1646,Channahalli Gate,CHAGT,13.21276924,77.7549427
1647,Kadugenahalli Gate,KDGH1,13.16834281,77.63114364
1648,Chikkahosahalli Gate,CHKGTE,13.20731763,77.76300544
1649,Vidyanagara Cross Chikkajala,VDHC-3,13.16097736,77.62724302
1650,Bettahalasuru Cross (Towards Yalahanka),BTHC-1,13.15659175,77.62354959
1651,Nallur Cross,NLLRCRS,13.20226484,77.77151046
1652,SMVIT Cross,SMVIT,13.15192231,77.62057862
1654,Bharathi Nagara,BHTN,13.13749326,77.61759791
1655,Devanahalli Cross Sulibele,DEVCR,13.18473724,77.79791718
1656,Bagalur Cross,BLRC,13.12186064,77.61135255
1657,Attibele Sulibele,ATBL1,13.16983801,77.79390456
1658,Sadhapanalli Gate,SADHAGT,13.16298667,77.79281197
1659,Yanagunte,YNGT,13.15763475,77.79067606
1660,Kammasandra,KAMSD,13.14989959,77.78108632
1661,Hasigaala,HSGL,13.13532604,77.77506246
1662,Sun Valley Public School Thimmsandra ,PUBLSC,13.12837918,77.77383801
1663,Thimmasandra Gate,TMSGT,13.12415607,77.77332226
1664,Lakkondahalli Gate,LKD-1,13.11715317,77.77342329
1665,Venkatapura Gate Lakkondahalli,LKD,13.11458483,77.77363527
1666,Lakkondahalli Temple,LKDHL,13.11068245,77.77426171
1667,Shanknipura Gate,SKLPR,13.10693949,77.77614276
1668,Halappanahalli,ALPH,13.10214641,77.77785864
1669,Kumbalahalli Gate,KMBLHLG,13.08852584,77.78076438
1670,Depot-39 Hoskote,D 39,13.06709554,77.78126239
1672,Katamanallur Gate,KATHTE,13.05316783,77.76198643
1673,Budigere Cross ( Towards Kempegowda Bus Station),BDG,13.04585768,77.75026017
1678,Banashankari Post Office,BNKPO,12.92619288,77.56989682
1679,Banashankari Bus Station (Towards Kadirenahalli),BSK,12.91668769,77.57303509
1680,Nagendra Block,NGNDRBL,12.94193382,77.55293653
1681,Banashankari 1st Stage Muneshwara Block KEB,MNSHRB,12.9420519,77.55059518
1682,Girinagara 2nd Stage,GRNCR,12.94071693,77.54500558
1683,Muneshwara Block ,MNSB,12.94494133,77.54730354
1685,Muneshwara Block,MNSBLK,12.94226689,77.54858228
1687,Timber Yard Layout,TMBRL,12.9483908,77.5433476
1688,TC Palya,SAC,13.02159685,77.69998079
1689,Anandapura,ANDPR,13.02422515,77.69285292
1690,Akshayanagara,AKYNG1,13.02067996,77.68353782
1691,Kalkere Cross,KALKC,13.02128015,77.67880077
1692,ITI Layout,ITILK,12.93345802,77.55777153
1693,Kalkere,KLKR1,13.0335498,77.67462332
1694,Pooja Garden,PJGDN1,13.03897744,77.67742008
1695,Channammanakere Achukattu,CKA,12.92831834,77.55648542
1696,K Channasandra,KCHDR,13.04015844,77.67946831
1697,Rampura,RMPR3,13.05169509,77.6911008
1698,Bengaluru High School,BHSS,12.95180447,77.56746709
1699,Aduru (Towards Avlahalli),ADU3,13.05552872,77.70571225
1701,Makkala Koota,,12.95724213,77.57302492
1702,Bidarahalli Cross,BDRCS1,13.05690943,77.71508908
1704,Bidarahalli,BDHI,13.06024039,77.71618689
1705,Ramakrishna Ashrama,RMKAS,12.94944811,77.56773941
1706,East Point College,EPC2,13.05014032,77.71999897
1707,Makkala Koota,MKL123,12.95778027,77.57389823
1708,Hiranandani,HRNH1,13.0458343,77.72253882
1709,Kittaganuru,KITNU,13.03738264,77.71062919
1710,Maragondanahalli,MNGHLI,13.03719575,77.69297354
1711,Srirama Layout Avalahalli Road ,SRML,13.0397013,77.7292932
1712,Hiranandani,HNDH11,13.04567984,77.72280604
1713,East Point College,EPC1,13.04982936,77.72001279
1714,Bidarahalli,BDHI1,13.06004516,77.71616749
1715,Dodda Mori Bidarahalli,DDMRI1,13.06539496,77.716962
1716,Bayyapannahalli,BYPHI2,13.07163802,77.72080307
1717,Amogha Layout,AMGLT,13.07508963,77.7180644
1718,Kammasandra,KMSD,13.07856265,77.71635614
1719,Kada Agrahara,KDAGR,13.0785431,77.69182319
1720,Yarappanahalli,YRNHLI,13.08522724,77.68714077
1721,Neelasandra Bus Stand,NLSB,12.95770839,77.61435375
1722,Marasandra,MRSD,13.09975883,77.71497601
1723,Austin Town,ASTWN,12.96146909,77.61420642
1724,Philomenas Hospital,PLMSHSP,12.96472362,77.61029923
1725,Yarappanahalli,YRPH,13.08535189,77.68715788
1726,Philomenas Hospital,PHSPTL,12.965529,77.60968832
1727,Bandebommasandra Cross,BNDBC,13.08096751,77.68270248
1728,Bande Bommasandra ,BNBD1,13.07672002,77.68090109
1729,Ashokanagara ,ASKN,12.96317936,77.61166005
1730,Anagalipura Gate,ANR2,13.0730607,77.67885232
1731,Dodda Gubbi,DGB,13.07092501,77.6740068
1732,Austin Town Neelasandra,ASTWN2,12.96143478,77.61248411
1733,Dodda Gubbi,DODG,13.07103471,77.67376277
1734,Neelasandra BDA Complex,NLS BDA,12.95730573,77.61474412
1735,Bande Bommasandra ,BNBD2,13.07663952,77.68071504
1736,Neelasandra Rose Garden,RSNDN,12.95373387,77.61749497
1737,Bandebommasandra Cross,BBSC,13.08092543,77.68290649
1738,Kada Agrahara,KDAGR1,13.07860591,77.69169546
1739,Neelasandra Bus Stand,NLSB1,12.95769934,77.61456904
1740,Gundur,GDOR,13.08676275,77.71508116
1741,Neelasandra BDA Complex,NLSBDA,12.95722791,77.61477547
1742,Kammasandra,KMSDR,13.07862097,77.71644112
1743,Amogha Layout,AMGLT3,13.07507262,77.71817603
1744,Bayyapannahalli,BYPHL,13.07151955,77.72080068
1745,Dodda Mori Bidarahalli,DDMRI,13.06538011,77.71703839
1746,Bidarahalli Cross,BDRCS,13.05686782,77.71503058
1747,Aduru (Towards Ramapura),ADR1,13.05535554,77.70601533
1748,Rampura,RMPR1,13.05158203,77.691186
1749,K Channasandra,KCHDR1,13.04009499,77.67967035
1750,Neelasandra Masjid Street ,MJDSTNRT,12.95409437,77.61230321
1751,Pooja Garden,PJGDN,13.03888895,77.67756449
1752,Neelasandra Masjid Street ,MJDSTNLSD,12.95412046,77.61207626
1753,Kalkere,KLKR11,13.03347118,77.67484369
1754,Austin Town Neelasandra,AUSTWN,12.9613877,77.61239652
1755,Austin Town,AUTTN,12.96162379,77.61335987
1756,ASC Centre,ASCCTR,12.96238716,77.6190769
1757,Kalkere Cross,KLKR,13.0212022,77.67885298
1758,Vannarapet,VNRPT,12.95646726,77.62114952
1759,Akshayanagara,AKHNGR,13.02072222,77.68338951
1760,Vivek Nagara,VVKN,12.95446086,77.62287405
1761,Anandapura,ANDPR1,13.02409883,77.69270401
1762,Vivek Nagara Police Station Ravi Tent ,RAVTNT,12.95139519,77.62200205
1763,Ejipura,EJIPRA,12.9467322,77.6288549
1764,TC Palya,STATC,13.0216071,77.69986057
1765,Ejipura,EJPR,12.94673196,77.6287183
1766,Vivek Nagara Police Station Ravi Tent ,RVTENT,12.95147192,77.62204553
1767,Vivek Nagara,VVKN2,12.95415096,77.62297538
1768,Vannarapet,VANPT,12.95663162,77.62102065
1769,ASC Centre,ASCC,12.96196913,77.61906088
1770,Bayyappanahalli Gate,BYPGT6,12.991487,77.64344449
1771,Bayyapannahalli Cross,BYPC-1,12.98505347,77.64256824
1772,Bayyapannahalli Cross,BYPC,12.98518795,77.64245632
1773,Bayyappanahalli Gate,BYPGT3,12.99153029,77.64337545
1774,Jeevanahalli Graveyard,JVHGV3,12.99382529,77.63173897
1775,Jeevanahalli Graveyard,JVHGV,12.99378282,77.63176244
1776,Jeevanahalli,JVH3,12.99498318,77.62808555
1777,Jeevanahalli,JVH,12.9950261,77.62849423
1778,Jeevanahalli Cross,JVHCR1,12.99434193,77.62909205
1779,Jeevanahalli Cross,JVHCR3,12.9942368,77.62893038
1780,Jeevanahalli Water Tank,JVWT,12.99382167,77.6266631
1781,Pankaj Dairy,pkjdy1,12.99543105,77.62347768
1782,Cox Town,COXTN,12.9962938,77.62153345
1783,Sindhi Colony,SNDCLY,12.99556417,77.61664061
1784,Naga Talkies,NGATKS,12.98551117,77.61174013
1785,Lake Side Hospital,LSK,12.98850204,77.61746024
1786,RBANMS PU College,RBMSP,12.98270017,77.61595414
1788,Maniksha Parade Ground,MPG,12.97755391,77.60702141
1789,Maniksha Parade Ground,MNHPG,12.97747239,77.60802943
1790,Commercial Street (Towards Deckenson Road),CMS,12.97993263,77.60960161
1791,Dickenson Road,DKSRD,12.98086682,77.61074018
1792,Kamaraja Road,KMRJRD,12.98423539,77.61164518
1793,Thomas Bakery,TMSBK,12.99115299,77.61423039
1794,Coles Road,COLSRD,12.99648585,77.6122348
1795,Coles Park (Towards HK Degree College),CLSPK2,12.9943762,77.6100245
1796,Coles Park (Towards Coles Road),COLPK1,12.99346909,77.60989032
1797,Coles Road,CLOSRD,12.99632578,77.61236246
1798,Sindhi Colony,SDYCLY,12.99548711,77.61632029
1799,Cox Town,CXTN,12.99648299,77.62156665
1800,Pankaj Dairy,PKJDY3,12.99591456,77.62385271
1801,Jeevanahalli Water Tank,JVHWT2,12.99456241,77.62693996
1802,Ananthapura Gate (Towards Doddaballapura),ANTPRG1,13.11497453,77.57881815
1803,CRPF (Towards Doddaballapura),CRPF,13.12354441,77.57506941
1804,Nagenahalli Gate,NGNH,13.12996101,77.5712988
1805,Avalahalli (Towards Doddaballapura),AVLHL,13.13527565,77.56907652
1806,Singanayakanahalli Gate,SNH,13.14757366,77.56978204
1807,Honnenahalli,HNNHL1,13.15979105,77.56661545
1808,Sri Ramanahalli,SRH1,13.19510058,77.56294616
1809,Suradenapura Gate,SRDP1,13.20446095,77.55892146
1810,Brundavana Nagara,BRNDN,12.95055081,77.55539596
1811,Marasandra Circle,MSDC,13.22285103,77.54960935
1812,Sirsi Circle,SRSC,12.96019221,77.55948522
1813,Binnypet,BNIPT,12.96467391,77.5616989
1814,Binny Mill,BNYML,12.97056963,77.56621192
1815,Marasandra Govt School,MRSGS,13.23076315,77.55015835
1816,Marasandra Govt School,MRSNDGS,13.23093179,77.55009144
1817,1st Cross Magadi Road,MGD1C,12.97563929,77.56244027
1818,5th Cross Magadi Road,MGD5C,12.97584555,77.56078154
1819,Bank Circle Bashettyhalli,BNKC1,13.25809058,77.55273914
1820,Bashettihalli,BSTH,13.26149501,77.5525194
1822,Navarang Theatre,NVRNG2,12.99858565,77.55281395
1825,Aparel Park,APRLP,13.27261338,77.5519775
1826,Yashawanthapura TTMC,YTTMC,13.01792884,77.55638747
1827,Railway Station Doddaballapura,DBPRS,13.28006955,77.55161355
1828,Govardhan Talkies (Towards Vivekananda College),GVRDN,13.01839849,77.5535841
1829,Rangappa Circle,RNGPC,13.28753317,77.54387203
1830,Railway Station Yeshwanthapura,YPR STN,13.02178926,77.55323283
1831,Canara Bank Rajajinagara 1st Block,CBR1st,13.00087658,77.55042855
1832,Jalahalli Cross,JHC1,13.03957692,77.51822061
1833,Peenya Metro Station,PNY1,13.03560504,77.52594403
1834,1st Block Rajajinagara Diacon Hospital,DCH1,13.00381032,77.55000239
1835,Doddaballapura Old Bus Stand,DBP,13.29340439,77.54228714
1837,Rangappa Circle,RNGPC1,13.28742,77.54398048
1838,2nd Block Rajajinagara ,RAJ2B,12.99605818,77.55142166
1839,Railway Station Doddaballapura,DBPRS1,13.27990227,77.55174864
1840,Basaveshwara College,BSWC,12.99440091,77.55274699
1841,ESI Hospital Rajajinagara (Towards Old Police Station),RJNEH,12.99057289,77.55260642
1842,ESI Hospital Rajajinagara (Towards Navarang),RJNESI,12.99045923,77.5524676
1843,Old Police Station Rajajinagara,RJNPS,12.98992392,77.55545305
1844,Aparel Park,APRLP1,13.27231478,77.55204223
1846,Rama Mandira Rajajinagara ,RM1,12.98622758,77.55636379
1848,Bashettihalli,BSTH1,13.26176246,77.55264769
1849,Bank Circle Bashettyhalli,BNKC,13.25801187,77.5526708
1850,Byadarahalli (Towards Gollarahatti),BDH2,12.98502683,77.48210122
1851,Sujatha Talkies,SJT1,12.98245667,77.56197558
1852,Venkatala,VTHL1,13.1113861,77.60455583
1853,Jinke Bachahalli Gate,FCTC,13.24603085,77.55243419
1854,Bagalur Cross,BLGC,13.12198268,77.6106065
1855,College Cross Byadarahalli,CC,12.98549815,77.47957102
1856,Dwaraka Nagara (Towards Bagaluru),DWRNG,13.12135386,77.61815802
1857,Mysore Circle,MYSC,12.96109008,77.55960912
1858,Jinke Bachahalli Gate,FCTC1,13.24590454,77.55252506
1859,Kattigenahalli Cross,KATGN,13.12186527,77.62557987
1860,College Cross Byadarahalli,CC3,12.98565869,77.47956565
1861,Reva College,REVC,13.1155333,77.63392769
1862,Marasandra Circle,MRSDC,13.22273583,77.54972305
1863,Brundavana Nagara,BRNDNA,12.95061071,77.55553515
1864,Reva College,REVCG,13.1153801,77.63422862
1865,Srinivasapura Cross,SRVC,13.12602995,77.64510723
1866,Sathanur Colony,STNC1,13.12790005,77.6464928
1867,Bagalur (Towards Yadiyuru),BGL R,13.13453399,77.66809243
1868,Bagalur (Towards Hoovinayakanahalli),BGLR,13.1345471,77.66799766
1869,Bagalur Santhe,BGLRA,13.1333277,77.66669684
1870,Sathanur,STNR.,13.13179589,77.6475168
1871,Sathanur,STNR,13.13190708,77.64743083
1872,Sathanur Colony,STNRC,13.12786197,77.64661776
1873,Suradenapura Gate,SRDNP,13.20439657,77.55906987
1874,Srinivasapura Cross,SRIVC,13.12576711,77.6450635
1875,Manjunatha Nagara,MNJ,12.98212355,77.48111534
1876,Sri Ramanahalli,SRH,13.19515605,77.56289736
1877,Kattigehalli Cross,KTGHC,13.12175609,77.62576354
1878,Dwaraka Nagara (Towards Yalahanka),DWKN,13.1212162,77.61804404
1879,Bagalur Cross,BGLRC,13.12139734,77.61085849
1880,Indian Air Force,YLGAFS1,13.13107889,77.61502881
1881,Honnenahalli,HNNHL,13.15970959,77.5665951
1882,Hunasamaranahalli,HNMSR,13.1441821,77.61767753
1883,Manjunatha Nagara,MJN1,12.98209606,77.48104124
1884,Byadarahalli (Towards Sunkadakatte),BDH1,12.98518445,77.48201717
1885,Avalahalli (Towards Yalahanka NES Office),AVLHL1,13.13520502,77.56920107
1886,Nagenahalli Gate,NGNH1,13.12997044,77.57146366
1887,RV Teachers College,RVTC,12.94440709,77.58013508
1888,CRPF (Towards Yalahanka),CRP1,13.12303806,77.57549666
1889,Ashoka Pillar,ASPLR,12.94312115,77.58542203
1891,Ananthapura Gate (Towards Yalahanka),ANTPG1,13.11485706,77.57902536
1892,Ullala Satelite Town,HST,12.96260524,77.47496911
1893,Rani Saraladevi High School,RNSD,12.93766304,77.58511153
1894,Hosahalli Kodagalahatti,HSHS12,13.14327168,77.6428034
1896,South End Circle,SEC2,12.93680012,77.58127721
1897,Aralimara Hosahalli,HLMHSK,13.14037788,77.64123449
1898,Aralimara Hosahalli,HLMHSH1,13.14038203,77.64128388
1899,Kodagalahatti,KDGLH,13.1431192,77.62906961
1900,Kodagalahatti,KGLHT,13.14308786,77.62910179
1901,Ullalu Village,HLLV,12.95589732,77.48016004
1902,Ullalu,HLL,12.95567194,77.48009083
1903,Hunasamaranahalli,HMH-3,13.14431364,77.61780433
1907,Manganahalli Cross,MNGHC,12.95267666,77.48417837
1908,Manganahalli Cross,MNGHC1,12.95270217,77.48403731
1909,6th Block Jayanagara,6-Jan,12.93087407,77.5780767
1910,Vidyaniketan Public School,VPS1,12.95114837,77.48633057
1911,Vidyaniketan Public School,VPS,12.95119079,77.48611647
1912,Netkallappa Circle,NTKLPC,12.93966253,77.57239033
1913,Ananthapura,ANTP,13.11449726,77.56771772
1914,Press Layout,PRSLO1,12.95090901,77.49176788
1915,Press Layout,PRSLO,12.9503434,77.49124344
1916,Muneshwara Layout,MNSLO1,12.95130907,77.49415656
1917,Muneshwara Layout,MNSLO,12.95124028,77.49440948
1918,Ramagondanahalli,RMGHL1,13.11935936,77.55857699
1919,Ramagondanahalli,RMGHL2,13.11936227,77.55860863
1920,Bengaluru University Quarters (Towards Kengeri),BUQ2,12.95211456,77.49853017
1921,Bettahalasuru Cross (Towards SMVIT College),BTHC2,13.15675813,77.62261223
1922,Bengaluru University Quarters (Towards Ullalu),BUQ1,12.95203864,77.49838
1923,Dayananda Sagar College,DYNDSC,12.90946957,77.56523265
1924,Amritha Ayurvedic Hospital,AAH,13.12470635,77.54725343
1925,Bengaluru University Quarters (Towards Mariyappanapalya),JNBR,12.95176374,77.49975027
1926,Amritha Ayurvedic Hospital,AAH1,13.12485154,77.5472148
1927,Bettahalasuru Hospital,BTHLS,13.15924366,77.61141437
1928,Kumaraswamy Layout,KML0,12.9029336,77.56170481
1929,Nagarajuna College Ananthapura,NGRJC,13.11722272,77.56132711
1930,Nagarajuna College Ananthapura,NGRJNC,13.11734568,77.56127218
1931,ISRO Layout,ISRO,12.89956207,77.55819633
1932,Narayanapura,NRP1,13.16258923,77.60143968
1933,Kenchanapura Cross,KNGPC,12.94153832,77.49345589
1934,Pipeline ISRO Layout,PPLN,12.89520959,77.55509133
1935,Vasanthapura,VSTPR,12.89493261,77.55283538
1936,Yadalamma Nagara,YDLMN,12.89629549,77.54844662
1937,Bhuvaneshwari Nagara 1st Stage,BVN1st,12.94220249,77.49040651
1938,Gurukula School Tharahunase ,TAGR1,13.17174906,77.59889973
1939,Bhuvaneshwari Nagara 2nd Stage,BVN2nds,12.94258066,77.48724095
1941,Bridge Sonnenahalli ,SNHB1,12.94198828,77.48286507
1942,Tharahunase,TRHNSE,13.17857309,77.58864054
1943,Sonnenahalli,SNH2,12.94200912,77.47969881
1944,Chikka Basti,CKBST1,12.94458658,77.47501781
1945,Masjid Chikka Basti,CBSTM,12.94182352,77.4740872
1946,Dodda Basti,DBT,12.93947281,77.4729149
1947,Addiganahalli,ADGH,13.17291279,77.56958865
1948,Chikkanahalli (Towards Dodda Basti),CKH3,12.93445402,77.47241921
1949,Chikkanahalli (Towards Kengeri Club),CKH0,12.93448329,77.47248035
1950,Rajanukunte,RJNKT,13.17138593,77.5644491
1951,Dodda Basti,DBT1,12.9395272,77.47278292
1952,Rajanukunte,RJNKT1,13.17320933,77.56431291
1953,Chikka Basti Masjid ,CBSTM1,12.94187296,77.4740544
1954,Addiganahalli,ADGNH,13.17295433,77.5695334
1955,Chikka Basti,CKBAST1,12.94464121,77.47504916
1956,Thimmasandra Circle,TMSDC,13.16989949,77.58040881
1958,Tharahunase,TRHNS,13.17865177,77.58852605
1959,Pratyangira Temple Turalli,PTGTT1,12.8923176,77.53655881
1960,Karishma Hills Cross,KSMHC,12.88874833,77.54137526
1961,Narayanapura,NRP2,13.16264145,77.60139604
1962,Shanimahathma Temple,SMTVN3,12.89303469,77.54315037
1963,Bettahalasuru Circle,BHLC7,13.16105847,77.61097094
1964,Shri Vishnu Garden,SVGRD,12.94548484,77.45743418
1965,IAF Indian Air Force ,YLAFS,13.13064521,77.61518286
1966,AGS Layout Arehalli,AGSL,12.91253339,77.53705447
1967,Sulikere,SLK,12.93905615,77.44804344
1968,Sulikere Palya ,SULKR,12.9391556,77.44814047
1969,Sulikere Palya,SLKRPL,12.94456414,77.44964102
1970,Ittamadu,ITMDU,12.9196099,77.54237866
1971,Shri Vishnu Garden,SVG1,12.94572739,77.45761444
1972,Ramasandra,RMS0,12.94552322,77.46793549
1976,SLV Bakery,SLVB,12.92120968,77.54315334
1977,Sonnenahalli,SNH3,12.94214088,77.47984041
1978,Bridge Sonnenahalli,SNHB,12.94209464,77.48293605
1979,Ittamadu,ITMD9,12.92399791,77.54363159
1980,Bhuvaneshwari Nagara 2nd Stage,BVN2nd,12.94264161,77.48714413
1981,Bhuvaneshwari Nagara 1st Stage,BVN1sts,12.9422923,77.49030846
1982,Srinivasa Kalyana Mantapa,SRIKM,12.92596373,77.54435531
1983,Mariyappanapalya,MRPLYA,12.94529819,77.49541136
1984,Bengaluru University Administrative Block,BUAMB,12.95000939,77.50067208
1985,Bengaluru University Quarters (Towards AIT College),UNVRQTRS,12.95269972,77.50003446
1986,Hoskerehalli,HSKRH,12.93030789,77.53956987
1987,Mallathahalli Cross,MRTHLY,12.95769513,77.50317792
1988,Mallathahalli,MLT5,12.95873612,77.50061511
1989,Srinivasa Kalyana Mantapa,SRIKM,12.92579912,77.54423179
1990,Balaji Layout,BLJLT,12.96001988,77.48913621
1991,Balaji Layout,BLGBN,12.96004673,77.48931594
1992,Ittamadu,ITMD10,12.92390308,77.54367663
1993,SLV Bakery,SLVBR,12.92118407,77.54324129
1994,Ittamadu,VBB1,12.91953727,77.54222203
1995,AGS Layout Arehalli,AGSLYT,12.91243824,77.53702523
1996,Mallathahalli,MLT25,12.95888979,77.50058915
1997,Mallathahalli Cross,MLHC2,12.95761362,77.50302704
1998,Ambedkar Institute of Technology,AIT1,12.96320595,77.50498594
1999,Deepa Complex,DPEC1,12.96696698,77.50517944
2000,Papareddypalya,P[DP,12.97240292,77.50790787
2001,Papareddypalya,PPDRP,12.97227437,77.50803628
2002,Post Office Subramanyapura,SPR PSTO,12.89871134,77.54402614
2003,Aladamara Papareddypalya,ALDMPPRP,12.97511092,77.50958039
2004,Aladamara Papareddypalya,ALDPRP,12.97501514,77.50938949
2005,Yadalamma Nagara,YDLNR,12.89637128,77.54842625
2006,BDA Complex Nagarabhavi (Towards Kengeri),NBVB0,12.97931455,77.51072497
2007,BDA Complex Nagarabhavi (Towards Kottigepalya),BDAC,12.97950773,77.51058606
2008,Vasanthapura Temple,VSNTP,12.89623188,77.55262622
2009,Pipeline ISRO Layout,PPL,12.89516847,77.55511887
2010,Annapoorneshwarinagara (Towards Papareddypalya),ANPRNSRNGR,12.98055641,77.50687179
2011,ISRO Layout,ILO,12.8994344,77.55822834
2012,Annapoorneshwarinagara (Towards Sunkadakatte),ANNPRNSRNGR,12.98041988,77.50671759
